     2              OBSERVATION DATA    G (GPS)             RINEX VERSION / TYPE
RINEXDLL.DLL V2.60                      01 - APR - 09 12:10 PGM / RUN BY / DATE 
                                                            COMMENT             
????                                                        MARKER NAME         
                                                            MARKER NUMBER       
                                                            OBSERVER / AGENCY   
                    LOCUS               L_42      UNKNOWN   REC # / TYPE / VERS 
                                                            ANT # / TYPE        
 -2678883.9700 -4303701.1800  3857593.2400                  APPROX POSITION XYZ 
        0.0000        0.0000        0.0000                  ANTENNA: DELTA H/E/N
     1     0                                                WAVELENGTH FACT L1/2
     3    L1    C1    D1                                    # / TYPES OF OBSERV 
    10.0000                                                 INTERVAL            
                                                            LEAP SECONDS        
  1998     9    30    16     2   50.000000      GPS         TIME OF FIRST OBS   
  1998     9    30    19    32   30.000000      GPS         TIME OF LAST OBS    
                                                            END OF HEADER       
 98  9 30 16  2 50.0000000  0  7G21G17G03G23G01G06G22                0.000142820
     79368.521 7  21444079.324        -526.831
    375804.855 6  21193087.526       -3281.589
     -9312.670 7  21872731.279          81.342
    406892.622 7  20723221.929       -2522.054
   -193082.453 6  23622480.157        1628.262
    745223.646 6  24018678.513       -5720.097
    444809.921 5  24653678.807       -4296.384
 98  9 30 16  3  0.0000000  0  7G21G17G03G23G01G06G22                0.000155302
     84621.879 6  21445081.605        -524.118
    408606.459 6  21199324.538       -3278.798
    -10131.107 7  21872580.170          82.634
    432099.509 7  20728017.290       -2519.167
   -209388.650 6  23619382.276        1633.191
    802401.520 5  24029561.000       -5715.369
    487752.159 4  24661860.292       -4292.276
 98  9 30 16  3 10.0000000  0  7G21G17G03G23G01G06G22                0.000167749
     89851.661 6  21446074.443        -522.006
    441385.575 6  21205563.556       -3276.923
    -10956.617 7  21872423.127          82.756
    457280.986 7  20732811.794       -2517.148
   -225739.204 6  23616268.729        1637.296
    859539.222 5  24040428.180       -5712.106
    530653.002 5  24670031.689       -4288.284
 98  9 30 16  3 20.0000000  0  7G21G17G03G23G01G06G22                0.000180142
     95059.500 6  21447067.209        -519.872
    474144.039 7  21211801.429       -3275.085
    -11786.806 7  21872262.505          83.244
    482440.194 7  20737596.139       -2515.210
   -242132.307 6  23613149.744        1641.245
    916638.719 5  24051298.507       -5708.662
    573514.071 5  24678183.913       -4284.390
 98  9 30 16  3 30.0000000  0  7G21G17G03G23G01G06G22                0.000192457
    100248.299 7  21448053.536        -517.438
    506885.219 6  21218029.070       -3273.070
    -12619.004 7  21872103.886          83.875
    507579.463 7  20742381.627       -2512.532
   -258565.651 6  23610022.674        1645.758
    973702.547 5  24062151.231       -5704.320
    616337.290 5  24686321.468       -4279.976
 98  9 30 16  3 40.0000000  0  7G21G17G03G23G01G06G22                0.000204813
    105416.809 7  21449036.073        -516.095
    539607.934 6  21224254.567       -3271.616
    -13453.956 7  21871943.409          83.636
    532697.841 7  20747159.249       -2511.208
   -275039.315 6  23606890.526        1649.396
   1030729.391 5  24073005.747       -5700.952
    659121.017 5  24694473.263       -4276.547
 98  9 30 16  3 50.0000000  0  7G21G17G03G23G01G06G22                0.000217122
    110570.686 7  21450016.034        -514.334
    572317.034 6  21230481.208       -3270.000
    -14286.664 7  21871782.717          83.409
    557801.181 7  20751932.576       -2509.448
   -291546.734 6  23603751.582        1652.702
   1087724.008 5  24083854.825       -5697.508
    701870.715 5  24702608.818       -4273.320
 98  9 30 16  4  0.0000000  0  7G21G17G03G23G01G06G22                0.000229361
    115709.163 6  21450992.348        -513.376
    605011.752 6  21236701.411       -3269.017
    -15118.085 6  21871629.038          83.006
    582887.524 7  20756708.122       -2507.811
   -308088.689 6  23600605.698        1655.913
   1144684.803 5  24094694.459       -5694.434
    744585.719 5  24710724.269       -4270.412
 98  9 30 16  4 10.0000000  0  6G21G17G03G23G01G06                   0.000241485
    120833.699 6  21451969.448        -511.963
    637693.613 6  21242922.473       -3267.867
    -15946.872 6  21871466.414          82.808
    607957.871 7  20761478.231       -2506.393
   -324664.471 6  23597443.000        1659.152
   1201611.185 6  24105531.160       -5691.048
 98  9 30 16  4 20.0000000  0  6G21G17G03G23G01G06                   0.000253706
    125947.925 6  21452944.617        -511.104
    670367.357 6  21249141.746       -3266.907
    -16767.407 6  21871311.735          81.485
    633016.439 7  20766244.263       -2505.513
   -341269.205 6  23594284.741        1661.743
   1258507.015 6  24116360.779       -5688.235
 98  9 30 16  4 30.0000000  0  6G21G17G03G23G01G06                   0.000265880
    131052.692 7  21453910.413        -510.117
    703032.776 6  21255356.871       -3266.246
    -17577.483 7  21871157.341          80.426
    658063.554 7  20771015.875       -2504.401
   -357902.329 6  23591120.827        1664.992
   1315372.403 5  24127181.954       -5684.921
 98  9 30 16  4 40.0000000  0  6G21G17G03G23G01G06                   0.000278049
    136150.492 6  21454881.004        -509.181
    735690.177 6  21261567.844       -3265.118
    -18374.930 7  21871006.811          79.346
    683102.387 7  20775780.332       -2503.404
   -374560.731 6  23587949.976        1667.261
   1372208.943 5  24138003.632       -5682.231
 98  9 30 16  4 50.0000000  0  6G21G17G03G23G01G06                   0.000290174
    141242.313 7  21455850.022        -509.206
    768340.837 6  21267778.606       -3264.888
    -19158.635 7  21870856.212          77.396
    708135.400 7  20780542.860       -2503.178
   -391241.912 5  23584774.119        1668.842
   1429017.989 5  24148817.369       -5680.093
 98  9 30 16  5  0.0000000  0  6G21G17G03G23G01G06                   0.000302280
    146329.758 7  21456821.400        -508.611
    800986.797 6  21273998.166       -3264.340
    -19926.372 7  21870711.836          76.042
    733164.679 7  20785303.957       -2502.834
   -407945.091 6  23581598.974        1671.558
   1485801.070 5  24159621.303       -5676.944
 98  9 30 16  5 10.0000000  0  6G21G17G03G23G01G06                   0.000314311
    151410.892 7  21457792.205        -507.735
    833626.600 6  21280207.996       -3263.721
    -20678.283 7  21870567.388          74.527
    758188.704 7  20790068.559       -2502.194
   -424671.645 5  23578412.381        1674.417
   1542556.847 6  24170415.650       -5674.455
 98  9 30 16  5 20.0000000  0  6G21G17G03G23G01G06                   0.000326386
    156487.873 7  21458753.496        -507.387
    866263.698 6  21286421.762       -3263.419
    -21411.430 7  21870427.520          72.710
    783209.424 7  20794832.159       -2501.817
   -441418.326 6  23575215.632        1676.093
   1599288.811 6  24181213.861       -5671.693
 98  9 30 16  5 30.0000000  0  6G21G17G03G23G01G06                   0.000338426
    161562.174 7  21459716.576        -507.353
    898898.936 6  21292627.873       -3263.332
    -22124.180 7  21870291.588          70.421
    808229.809 7  20799592.328       -2502.106
   -458182.943 6  23572028.113        1677.283
   1655998.342 6  24192006.994       -5670.061
 98  9 30 16  5 40.0000000  0  6G21G17G03G23G01G06                   0.000350395
    166631.663 7  21460688.169        -506.940
    931529.998 6  21298838.849       -3262.935
    -22818.308 7  21870160.807          68.575
    833247.759 7  20804351.708       -2501.926
   -474967.632 6  23568839.232        1679.575
   1712683.055 6  24202783.240       -5667.203
 98  9 30 16  5 50.0000000  0  6G21G17G03G23G01G06                   0.000362414
    171699.038 7  21461648.100        -506.474
    964159.782 6  21305047.250       -3263.072
    -23490.850 7  21870035.106          66.435
    858265.166 7  20809113.019       -2501.666
   -491769.377 6  23565646.562        1680.986
   1769345.047 5  24213568.717       -5665.190
 98  9 30 16  6  0.0000000  0  7G21G17G03G23G01G06G22                0.000374492
    176765.705 7  21462613.041        -506.696
    996790.101 6  21311259.872       -3263.281
    -24139.979 7  21869906.044          63.817
    883284.199 7  20813870.111       -2502.242
   -508587.336 6  23562448.525        1682.472
   1825986.221 5  24224344.822       -5663.304
     37758.31915  24807871.876       -4240.300
 98  9 30 16  6 10.0000000  0  7G21G17G03G23G01G06G22                0.000386419
    181832.407 7  21463575.119        -506.566
   1029422.662 6  21317470.420       -3263.448
    -24763.355 7  21869792.292          61.110
    908305.696 7  20818638.578       -2502.289
   -525421.221 6  23559245.551        1684.567
   1882607.805 5  24235115.130       -5661.018
     80151.652 5  24815932.525       -4238.377
 98  9 30 16  6 20.0000000  0  7G21G17G03G23G01G06G22                0.000398354
    186897.731 7  21464539.415        -506.279
   1062056.656 6  21323680.895       -3263.306
    -25360.473 7  21869679.184          58.688
    933329.431 7  20823401.393       -2502.443
   -542271.400 6  23556039.644        1686.235
   1939209.457 5  24245885.154       -5659.360
    122527.583 5  24824000.544       -4236.476
 98  9 30 16  6 30.0000000  0  7G21G17G03G23G01G06G22                0.000410238
    191964.858 7  21465508.793        -506.882
   1094693.994 6  21329886.794       -3264.117
    -25928.055 7  21869572.016          55.432
    958359.990 7  20828163.137       -2503.418
   -559133.126 6  23552829.733        1686.848
   1995795.319 5  24256654.249       -5658.191
    164890.934 5  24832059.408       -4235.875
 98  9 30 16  6 40.0000000  0  7G21G17G03G23G01G06G22                0.000422190
    197036.419 7  21466467.581        -507.274
   1127335.853 6  21336103.566       -3264.337
    -26464.423 7  21869466.494          52.388
    983400.049 7  20832924.738       -2504.514
   -576003.814 6  23549613.453        1687.708
   2052368.474 6  24267429.068       -5656.741
    207244.536 4  24840119.774       -4235.002
 98  9 30 16  6 50.0000000  0  7G21G17G03G23G01G06G22                0.000434085
    202112.176 7  21467435.456        -507.867
   1159981.619 6  21342313.542       -3264.731
    -26971.849 7  21869374.420          49.718
   1008448.936 7  20837691.704       -2505.188
   -592885.020 5  23546402.253        1688.768
   2108927.138 6  24278194.799       -5655.328
    249587.199 4  24848181.570       -4233.711
 98  9 30 16  7  0.0000000  0  7G21G17G03G23G01G06G22                0.000445936
    207192.201 7  21468404.118        -508.231
   1192632.228 6  21348521.730       -3265.559
    -27450.729 7  21869280.704          46.271
   1033506.380 7  20842462.679       -2506.856
   -609778.439 5  23543185.043        1689.957
   2165471.510 6  24288961.104       -5654.124
    291919.385 4  24856236.498       -4232.957
 98  9 30 16  7 10.0000000  0  7G21G17G03G23G01G06G22                0.000457783
    212276.344 7  21469373.853        -508.772
   1225288.321 6  21354740.935       -3265.984
    -27899.927 7  21869193.640          43.253
   1058571.931 7  20847231.147       -2507.220
   -626684.914 5  23539968.762        1691.455
   2222001.982 6  24299717.104       -5652.164
    334241.461 5  24864288.564       -4231.718
 98  9 30 16  7 20.0000000  0  7G21G17G03G23G01G06G22                0.000469686
    217372.063 7  21470332.573        -510.202
   1257958.339 6  21360958.570       -3267.685
    -28311.482 7  21869115.593          39.282
   1083653.846 7  20852003.267       -2508.958
   -643595.436 6  23536749.409        1691.176
   2278527.126 6  24310476.473       -5652.582
    376561.681 4  24872347.286       -4231.458
 98  9 30 16  7 30.0000000  0  7G21G17G03G23G01G06G22                0.000481504
    222478.981 7  21471310.609        -511.295
   1290642.052 6  21367178.064       -3269.151
    -28686.492 7  21869043.770          35.776
   1108751.211 7  20856778.749       -2510.480
   -660510.350 5  23533534.060        1691.913
   2335047.298 6  24321233.978       -5651.591
    418880.29115  24880401.216       -4231.985
 98  9 30 16  7 40.0000000  0  6G21G17G03G23G01G06                   0.000493315
    227595.410 7  21472285.282        -512.206
   1323336.273 6  21373398.486       -3269.928
    -29027.461 6  21868980.245          32.442
   1133862.458 7  20861562.029       -2512.082
   -677432.431 5  23530310.771        1692.346
   2391560.666 5  24331986.835       -5651.524
 98  9 30 16  7 50.0000000  0  6G21G17G03G23G01G06                   0.000505131
    232722.416 7  21473262.246        -513.921
   1356041.233 7  21379623.847       -3271.648
    -29332.682 7  21868920.586          28.357
   1158988.158 7  20866339.158       -2513.869
   -694360.456 5  23527092.918        1693.063
   2448067.922 5  24342738.046       -5651.096
 98  9 30 16  8  0.0000000  0  6G21G17G03G23G01G06                   0.000516979
    237866.142 7  21474237.207        -515.579
   1388763.298 6  21385847.850       -3273.387
    -29597.053 7  21868875.093          24.234
   1184132.718 7  20871126.804       -2515.849
   -711288.902 5  23523874.709        1692.894
   2504573.590 5  24353491.976       -5650.876
 98  9 30 16  8 10.0000000  0  6G21G17G03G23G01G06                   0.000528736
    243029.405 7  21475221.540        -517.107
   1421505.401 6  21392079.578       -3274.966
    -29818.461 7  21868827.023          20.508
   1209299.334 7  20875916.165       -2517.322
   -728215.868 5  23520649.774        1693.449
   2561080.676 5  24364239.036       -5650.232
 98  9 30 16  8 20.0000000  0  6G21G17G03G23G01G06                   0.000540512
    248208.153 7  21476209.451        -519.125
   1454262.350 7  21398316.387       -3276.759
    -30001.640 7  21868792.548          16.293
   1234484.045 7  20880705.673       -2519.824
   -745146.259 5  23517423.911        1693.074
   2617585.007 5  24374979.661       -5651.001
 98  9 30 16  8 30.0000000  0  6G21G17G03G23G01G06                   0.000552321
    253410.440 7  21477193.643        -521.275
   1487040.563 6  21404551.695       -3279.037
    -30139.441 7  21868765.158          11.542
   1259693.800 7  20885498.328       -2522.220
   -762072.223 5  23514206.276        1692.355
   2674094.063 5  24385731.875       -5651.408
 98  9 30 16  8 40.0000000  0  6G21G17G03G23G01G06                   0.000564064
    258634.775 7  21478189.497        -523.567
   1519837.287 6  21410789.147       -3280.618
    -30235.264 7  21868750.071           7.661
   1284925.766 7  20890302.144       -2524.275
   -778996.386 5  23510988.210        1692.433
   2730604.916 5  24396471.352       -5650.908
 98  9 30 16  8 50.0000000  0  6G21G17G03G23G01G06                   0.000575812
    263882.649 7  21479189.000        -526.102
   1552654.434 6  21417035.902       -3282.693
    -30288.135 7  21868741.783           3.287
   1310179.596 7  20895110.896       -2526.450
   -795919.051 5  23507765.493        1692.474
   2787117.621 5  24407214.409       -5651.599
 98  9 30 16  9  0.0000000  0  6G21G17G03G23G01G06                   0.000587612
    269154.182 7  21480196.660        -528.703
   1585493.864 6  21423286.592       -3285.138
    -30296.977 7  21868740.078          -1.614
   1335454.560 7  20899920.508       -2528.851
   -812840.931 5  23504546.284        1691.978
   2843631.766 5  24417980.287       -5651.526
 98  9 30 16  9 10.0000000  0  6G21G17G03G23G01G06                   0.000599402
    274452.648 7  21481204.104        -530.818
   1618359.151 6  21429542.864       -3287.691
    -30257.778 7  21868746.672          -6.487
   1360753.089 7  20904731.048       -2530.779
   -829757.933 5  23501327.146        1691.663
   2900151.617 5  24428738.082       -5652.031
 98  9 30 16  9 20.0000000  0  6G21G17G03G23G01G06                   0.000611217
    279775.588 7  21482211.049        -533.794
   1651247.999 6  21435796.130       -3290.356
    -30171.224 7  21868760.922         -11.266
   1386072.671 7  20909551.392       -2533.243
   -846669.915 6  23498110.513        1690.741
   2956675.970 5  24439509.830       -5653.058
 98  9 30 16  9 30.0000000  0  6G21G17G03G23G01G06                   0.000623005
    285129.648 7  21483231.874        -536.642
   1684166.677 6  21442062.131       -3292.749
    -30031.359 6  21868786.905         -16.292
   1411419.588 7  20914374.597       -2535.600
   -863568.932 6  23494890.948        1689.713
   3013211.386 5  24450273.134       -5653.642
 98  9 30 16  9 40.0000000  0  6G21G17G03G23G01G06                   0.000634754
    290508.094 7  21484255.776        -539.632
   1717107.008 6  21448326.703       -3295.584
    -29846.682 7  21868825.481         -21.223
   1436784.331 7  20919203.168       -2537.941
   -880462.836 6  23491675.102        1688.852
   3069749.296 5  24461022.201       -5654.547
 98  9 30 16  9 50.0000000  0  7G21G17G03G26G23G01G06                0.000646454
    295916.767 7  21485281.823        -542.303
   1750073.066 6  21454604.437       -3297.856
    -29612.777 7  21868870.280         -25.877
     63788.009 6  24046214.993       -4915.482
   1462172.074 7  20924033.742       -2539.958
   -897347.488 6  23488466.840        1688.005
   3126292.478 5  24471794.948       -5654.308
 98  9 30 16 10  0.0000000  0  7G21G17G03G26G23G01G06                0.000658170
    301356.025 7  21486325.115        -545.906
   1783064.819 6  21460883.318       -3300.652
    -29329.207 6  21868919.803         -31.319
    112956.650 6  24055566.988       -4918.672
   1487582.846 7  20928869.326       -2542.726
   -914221.532 6  23485258.150        1686.659
   3182839.536 5  24482553.031       -5655.501
 98  9 30 16 10 10.0000000  0  7G21G17G03G26G23G01G06                0.000669931
    306828.938 7  21487362.681        -548.557
   1816086.539 6  21467164.559       -3303.442
    -28993.819 6  21868988.070         -35.931
    162158.834 6  24064932.147       -4921.617
   1513019.175 7  20933706.696       -2544.585
   -931082.265 6  23482047.956        1685.851
   3239392.368 6  24493317.907       -5655.457
 98  9 30 16 10 20.0000000  0  7G21G17G03G26G23G01G06                0.000681651
    312331.322 7  21488410.337        -551.898
   1849135.059 6  21473454.172       -3306.465
    -28609.238 7  21869057.553         -41.078
    211391.565 6  24074297.307       -4925.162
   1538478.388 7  20938550.078       -2547.362
   -947933.306 6  23478842.343        1684.676
   3295948.845 6  24504079.781       -5656.152
 98  9 30 16 10 30.0000000  0  7G21G17G03G26G23G01G06                0.000693401
    317864.007 7  21489464.072        -554.410
   1882210.918 6  21479749.435       -3308.572
    -28173.061 6  21869141.489         -45.927
    260656.524 6  24083678.563       -4927.663
   1563962.494 7  20943400.612       -2549.152
   -964771.733 6  23475641.522        1683.636
   3352510.359 6  24514843.155       -5656.003
 98  9 30 16 10 40.0000000  0  7G21G17G03G26G23G01G06                0.000705130
    323429.566 7  21490522.748        -558.672
   1915316.296 7  21486048.494       -3312.471
    -27682.352 7  21869237.090         -52.412
    309955.693 6  24093057.963       -4932.092
   1589472.388 7  20948255.302       -2552.954
   -981593.345 6  23472436.055        1680.984
   3409078.200 6  24525608.108       -5657.729
 98  9 30 16 10 50.0000000  0  7G21G17G03G26G23G01G06                0.000716834
    329030.023 7  21491585.856        -561.383
   1948453.783 6  21492354.990       -3314.995
    -27135.049 7  21869336.265         -57.285
    359292.601 6  24102439.077       -4935.310
   1615010.172 7  20953118.929       -2554.912
   -998395.156 6  23469244.035        1679.626
   3465653.928 6  24536371.839       -5657.561
 98  9 30 16 11  0.0000000  0  7G21G17G03G26G23G01G06                0.000728572
    334661.820 7  21492661.774        -565.329
   1981620.821 6  21498664.066       -3318.724
    -26534.078 6  21869452.972         -63.391
    408664.420 6  24111837.652       -4939.778
   1640573.798 7  20957984.135       -2558.340
  -1015179.162 6  23466040.786        1677.094
   3522234.820 5  24547134.716       -5658.983
 98  9 30 16 11 10.0000000  0  7G21G17G03G26G23G01G06                0.000740317
    340324.769 7  21493737.117        -568.098
   2014818.404 7  21504983.011       -3321.385
    -25878.932 7  21869582.411         -68.428
    458072.400 6  24121237.868       -4942.638
   1666165.604 7  20962850.983       -2560.782
  -1031942.985 6  23462849.984        1675.166
   3578822.513 5  24557904.960       -5659.244
 98  9 30 16 11 20.0000000  0  7G21G17G03G26G23G01G06                0.000752033
    346018.769 7  21494817.755        -571.144
   2048045.935 6  21511307.969       -3324.678
    -25170.034 6  21869713.926         -74.051
    507515.846 6  24130639.374       -4946.375
   1691786.114 7  20967725.560       -2563.968
  -1048685.911 6  23459668.482        1673.314
   3635417.351 5  24568674.132       -5660.103
 98  9 30 16 11 30.0000000  0  7G21G17G03G26G23G01G06                0.000763761
    351746.506 7  21495912.345        -574.602
   2081305.770 6  21517638.435       -3328.058
    -24404.319 6  21869858.391         -79.628
    556996.240 6  24140055.047       -4950.179
   1717439.784 7  20972610.083       -2567.365
  -1065404.699 6  23456485.910        1670.601
   3692022.691 5  24579442.946       -5660.983
 98  9 30 16 11 40.0000000  0  7G21G17G03G26G23G01G06                0.000775506
    357506.316 7  21497009.796        -577.562
   2114596.458 6  21523974.194       -3330.701
    -23583.954 6  21870015.304         -84.785
    606511.245 5  24149478.158       -4953.023
   1743125.908 7  20977494.604       -2570.215
  -1082101.219 6  23453305.411        1668.735
   3748636.141 5  24590216.909       -5661.079
 98  9 30 16 11 50.0000000  0  7G21G17G03G26G23G01G06                0.000787270
    363299.737 7  21498108.250        -581.497
   2147919.323 6  21530306.593       -3334.151
    -22707.907 7  21870186.600         -90.913
    656062.617 6  24158912.647       -4956.932
   1768846.732 7  20982388.931       -2574.394
  -1098774.144 6  23450136.074        1666.156
   3805258.116 5  24600980.217       -5663.080
 98  9 30 16 12  0.0000000  0  7G21G17G03G26G23G01G06                0.000799022
    369126.741 7  21499220.512        -584.618
   2181275.404 6  21536655.161       -3337.709
    -21774.205 7  21870361.616         -96.532
    705650.719 6  24168351.645       -4961.081
   1794605.109 7  20987293.344       -2578.152
  -1115422.772 6  23446968.812        1663.603
   3861889.695 5  24611767.132       -5663.817
 98  9 30 16 12 10.0000000  0  7G21G17G03G26G23G01G06                0.000810755
    374985.699 7  21500332.916        -587.555
   2214665.422 7  21543009.379       -3340.614
    -20781.720 7  21870547.650        -102.328
    755275.064 5  24177795.147       -4964.322
   1820402.142 7  20992204.339       -2581.543
  -1132046.907 6  23443803.911        1661.259
   3918531.621 5  24622545.389       -5664.612
 98  9 30 16 12 20.0000000  0  7G21G17G03G26G23G01G06                0.000822475
    380876.672 7  21501457.697        -590.433
   2248091.749 6  21549373.044       -3344.341
    -19728.505 7  21870746.490        -108.083
    804937.463 5  24187235.431       -4967.891
   1846238.571 7  20997121.345       -2585.422
  -1148645.171 6  23440645.235        1658.636
   3975186.603 6  24633333.450       -5665.887
 98  9 30 16 12 30.0000000  0  7G21G17G03G26G23G01G06                0.000834239
    386799.566 7  21502580.477        -594.162
   2281555.229 6  21555745.224       -3348.483
    -18613.308 7  21870960.931        -115.100
    854639.629 5  24196696.966       -4972.446
   1872115.245 7  21002040.642       -2590.056
  -1165217.738 6  23437490.351        1655.640
   4031856.020 6  24644120.583       -5667.792
 98  9 30 16 12 40.0000000  0  6G21G17G03G26G23G01                   0.000845954
    392753.314 7  21503715.060        -596.979
   2315053.777 6  21562117.044       -3351.703
    -17437.865 7  21871184.812        -120.604
    904380.757 5  24206153.134       -4976.242
   1898031.332 7  21006974.174       -2593.672
  -1181765.239 6  23434340.045        1653.656
 98  9 30 16 12 50.0000000  0  6G21G17G03G26G23G01                   0.000857744
    398742.267 7  21504852.150        -601.183
   2348590.865 6  21568496.379       -3356.119
    -16199.822 7  21871423.578        -127.577
    954162.660 5  24215632.484       -4980.911
   1923989.437 7  21011913.648       -2598.544
  -1198284.176 6  23431198.328        1649.863
 98  9 30 16 13  0.0000000  0  6G21G17G03G26G23G01                   0.000869529
    404767.087 7  21506002.044        -604.210
   2382168.138 6  21574885.728       -3359.547
    -14898.532 7  21871667.993        -133.260
   1003986.301 5  24225122.994       -4984.634
   1949991.330 7  21016863.707       -2602.290
  -1214774.593 6  23428060.971        1647.868
 98  9 30 16 13 10.0000000  0  6G21G17G03G26G23G01                   0.000881287
    410822.308 7  21507149.792        -607.249
   2415780.674 6  21581285.523       -3363.324
    -13538.437 7  21871927.505        -139.293
   1053846.386 5  24234613.073       -4988.242
   1976033.219 7  21021818.704       -2606.340
  -1231241.984 6  23424922.327        1645.543
 98  9 30 16 13 20.0000000  0  6G21G17G03G26G23G01                   0.000893059
    416912.865 7  21508316.071        -610.838
   2449434.115 6  21587690.828       -3367.183
    -12114.696 6  21872197.463        -145.638
   1103746.787 5  24244108.807       -4992.294
   2002119.450 7  21026781.716       -2610.934
  -1247681.843 6  23421797.206        1642.645
 98  9 30 16 13 30.0000000  0  6G21G17G03G26G23G01                   0.000904832
    423038.510 7  21509479.846        -614.000
   2483127.349 6  21594099.925       -3371.068
    -10627.293 6  21872481.802        -151.526
   1153686.187 5  24253611.121       -4995.863
   2028248.198 7  21031754.742       -2614.561
  -1264095.789 6  23418675.518        1640.511
 98  9 30 16 13 40.0000000  0  6G21G17G03G26G23G01                   0.000916593
    429197.541 7  21510649.130        -617.383
   2516858.086 6  21600516.891       -3374.716
     -9077.955 6  21872772.795        -158.105
   1203662.526 4  24263123.237       -4999.765
   2054416.455 7  21036734.494       -2618.805
  -1280486.823 6  23415551.112        1638.045
 98  9 30 16 13 50.0000000  0  6G21G17G03G26G23G01                   0.000928359
    435391.851 7  21511830.506        -621.230
   2550628.660 6  21606944.305       -3379.089
     -7464.649 6  21873080.602        -164.648
   1253678.347 5  24272637.144       -5004.301
   2080625.013 7  21041723.046       -2622.913
  -1296852.789 6  23412440.156        1635.757
 98  9 30 16 14  0.0000000  0  6G21G17G03G26G23G01                   0.000940195
    441620.200 7  21513013.742        -624.585
   2584437.854 6  21613380.661       -3383.012
     -5788.770 6  21873398.782        -170.746
   1303733.001 5  24282182.243       -5008.070
   2106871.794 7  21046716.821       -2626.698
  -1313195.673 6  23409332.563        1633.432
 98  9 30 16 14 10.0000000  0  5G21G17G03G23G01                      0.000951997
    447883.844 7  21514207.710        -628.192
   2618287.336 6  21619817.232       -3387.189
     -4048.051 6  21873732.990        -177.423
   2133157.810 7  21051718.823       -2630.490
  -1329515.072 6  23406226.545        1631.000
 98  9 30 16 14 20.0000000  0  5G21G17G03G23G01                      0.000963805
    454184.694 7  21515403.897        -632.542
   2652178.536 6  21626266.825       -3391.531
     -2240.862 6  21874076.857        -184.271
   2159483.044 7  21056726.979       -2634.612
  -1345809.327 6  23403127.467        1627.953
 98  9 30 16 14 30.0000000  0  5G21G17G03G23G01                      0.000975632
    460523.193 7  21516608.811        -635.713
   2686110.652 6  21632726.360       -3394.975
      -368.529 7  21874435.532        -190.370
   2185844.504 7  21061744.362       -2637.773
  -1362078.055 6  23400034.182        1626.045
 98  9 30 16 14 40.0000000  0  6G21G17G03G23G01G22                   0.000987310
    466899.226 7  21517823.957        -639.790
   2720082.021 6  21639187.472       -3399.338
      1566.420 7  21874802.793        -196.919
   2212241.199 7  21066768.258       -2641.849
  -1378322.510 6  23396940.757        1622.986
     39662.59015  25227854.690       -4273.285
 98  9 30 16 14 50.0000000  0  6G21G17G03G23G01G22                   0.000999077
    473317.559 7  21519046.331        -644.034
   2754096.137 6  21645657.169       -3403.482
      3567.233 7  21875185.938        -203.419
   2238676.728 7  21071797.089       -2645.470
  -1394537.792 6  23393856.060        1620.293
     82403.331 5  25235980.240       -4274.585
 98  9 30 16 15  0.0000000  0  6G21G17G03G23G01G22                   0.000010893
  -1095640.619 7  21220483.649        -647.891
   1212736.651 6  21352342.595       -3407.613
  -1569785.629 7  21575783.205        -209.866
    689733.794 7  20777040.373       -2649.268
  -2986144.706 6  23090979.242        1617.445
  -1450256.575 5  24944328.473       -4275.792
 98  9 30 16 15 10.0000000  0  5G21G17G03G23G01                      0.000022793
  -1089133.638 7  21221722.185        -653.052
   1246840.397 6  21358838.615       -3413.130
  -1567647.783 7  21576191.023        -217.448
    716250.841 7  20782089.518       -2654.091
  -3002296.521 6  23087901.910        1613.577
 98  9 30 16 15 20.0000000  0  5G21G17G03G23G01                      0.000034602
  -1082583.854 7  21222966.230        -657.387
   1280988.149 6  21365338.640       -3417.285
  -1565441.499 7  21576606.209        -224.353
    742807.509 7  20787143.170       -2657.845
  -3018417.970 6  23084837.027        1610.361
 98  9 30 16 15 30.0000000  0  5G21G17G03G23G01                      0.000046492
  -1075986.860 7  21224223.367        -662.100
   1315184.723 6  21371848.539       -3422.177
  -1563163.124 7  21577045.865        -231.538
    769406.721 7  20792204.120       -2662.146
  -3034505.146 6  23081778.082        1607.130
 98  9 30 16 15 40.0000000  0  5G21G17G03G23G01                      0.000058310
  -1069343.197 7  21225487.373        -666.730
   1349428.999 6  21378365.235       -3426.845
  -1560812.878 7  21577489.598        -238.632
    796047.887 7  20797274.585       -2666.042
  -3050558.111 6  23078725.218        1603.758
 98  9 30 16 15 50.0000000  0  6G21G17G03G23G01G31                   0.000070171
  -1062652.080 7  21226759.107        -671.962
   1383721.772 6  21384885.508       -3432.030
  -1558389.998 7  21577952.006        -246.263
    822731.439 7  20802349.702       -2670.801
  -3066575.828 6  23075673.857        1600.151
    -17815.853 5  24185458.481        1288.460
 98  9 30 16 16  0.0000000  0  6G21G17G03G23G01G31                   0.000082035
  -1055914.999 7  21228044.433        -676.180
   1418061.914 6  21391423.239       -3436.545
  -1555896.074 7  21578425.144        -253.012
    849456.728 7  20807433.188       -2674.805
  -3082559.204 6  23072635.875        1596.544
    -30679.751 5  24183020.413        1284.102
 98  9 30 16 16 10.0000000  0  6G21G17G03G23G01G31                   0.000093953
  -1049134.019 7  21229332.336        -680.717
   1452446.607 6  21397969.125       -3440.958
  -1553333.675 7  21578915.311        -259.894
    876221.486 7  20812527.693       -2678.484
  -3098510.703 6  23069604.690        1593.752
    -43501.734 5  24180568.750        1279.814
 98  9 30 16 16 20.0000000  0  6G21G17G03G23G01G31                   0.000105676
  -1042305.350 7  21230631.972        -685.518
   1486879.487 6  21404517.159       -3446.190
  -1550699.313 7  21579416.210        -267.412
    903029.647 7  20817630.569       -2683.145
  -3114426.984 6  23066573.720        1589.799
    -56277.267 5  24178137.980        1275.027
 98  9 30 16 16 30.0000000  0  6G21G17G03G23G01G31                   0.000117544
  -1035426.135 7  21231943.341        -690.179
   1521363.594 6  21411082.506       -3450.842
  -1547990.661 7  21579929.987        -274.455
    929883.549 7  20822743.104       -2687.685
  -3130304.212 6  23063548.831        1585.916
    -69005.357 5  24175707.209        1270.760
 98  9 30 16 16 40.0000000  0  6G21G17G03G23G01G31                   0.000129457
  -1028496.885 7  21233261.436        -695.499
   1555898.874 6  21417654.793       -3456.099
  -1545207.539 7  21580464.727        -282.146
    956784.274 7  20827862.293       -2692.572
  -3146141.205 6  23060540.183        1581.798
    -81685.537 5  24173291.535        1265.640
 98  9 30 16 16 50.0000000  0  6G21G17G03G23G01G31                   0.000141394
  -1021517.406 7  21234584.182        -700.491
   1590485.126 6  21424232.160       -3461.345
  -1542349.393 7  21581004.046        -289.769
    983733.550 7  20832990.424       -2697.310
  -3161938.490 5  23057528.316        1577.895
    -94316.698 5  24170894.678        1260.936
 98  9 30 16 17  0.0000000  0  6G21G17G03G23G01G31                   0.000153352
  -1014488.138 7  21235923.884        -705.550
   1625122.253 6  21430827.700       -3466.309
  -1539414.528 7  21581563.470        -297.517
   1010732.032 7  20838127.571       -2702.348
  -3177696.331 6  23054527.467        1573.544
   -106899.636 5  24168507.765        1256.039
 98  9 30 16 17 10.0000000  0  6G21G17G03G23G01G31                   0.000165253
  -1007407.048 7  21237273.602        -710.747
   1659811.494 6  21437423.240       -3471.515
  -1536399.397 7  21582133.125        -305.730
   1037782.060 7  20843275.665       -2707.741
  -3193412.539 5  23051529.909        1569.601
   -119432.070 5  24166114.914        1250.905
 98  9 30 16 17 20.0000000  0  6G21G17G03G23G01G31                   0.000177218
  -1000274.237 7  21238629.545        -716.002
   1694553.540 6  21444035.307       -3476.898
  -1533303.080 7  21582722.599        -313.977
   1064883.728 7  20848430.269       -2712.823
  -3209086.996 5  23048551.812        1565.364
   -131913.123 5  24163736.015        1245.688
 98  9 30 16 17 30.0000000  0  6G21G17G03G23G01G31                   0.000189212
   -993087.154 7  21239994.504        -722.086
   1729350.897 6  21450662.543       -3483.200
  -1530122.819 7  21583330.174        -322.620
   1092038.844 7  20853598.825       -2718.655
  -3224717.288 6  23045578.079        1560.139
   -144340.968 5  24161373.643        1239.890
 98  9 30 16 17 40.0000000  0  6G21G17G03G23G01G31                   0.000201198
   -985845.227 7  21241376.418        -726.717
   1764204.333 6  21457289.563       -3487.880
  -1526858.647 7  21583950.412        -330.553
   1119248.138 7  20858777.255       -2723.824
  -3240301.967 6  23042613.003        1556.560
   -156716.055 5  24159021.860        1235.219
 98  9 30 16 17 50.0000000  0  6G21G17G03G23G01G31                   0.000213204
   -978550.514 7  21242764.700        -732.195
   1799110.778 6  21463933.897       -3493.620
  -1523512.036 7  21584590.754        -338.898
   1146509.965 7  20863964.841       -2728.949
  -3255841.587 6  23039659.017        1551.747
   -169039.996 5  24156675.729        1229.660
 98  9 30 16 18  0.0000000  0  6G21G17G03G23G01G31                   0.000225226
   -971199.925 7  21244161.353        -737.994
   1834073.208 6  21470586.674       -3499.098
  -1520079.748 7  21585244.405        -347.675
   1173827.036 7  20869162.874       -2734.409
  -3271333.520 6  23036708.894        1546.873
   -181309.297 5  24154343.120        1224.278
 98  9 30 16 18 10.0000000  0  6G21G17G03G23G01G31                   0.000237277
   -963794.863 7  21245571.385        -743.471
   1869090.411 6  21477250.398       -3504.457
  -1516563.266 7  21585911.291        -355.937
   1201198.090 7  20874372.569       -2739.880
  -3286779.183 6  23033774.798        1542.154
   -193524.751 5  24152021.887        1218.945
 98  9 30 16 18 20.0000000  0  6G21G17G03G23G01G31                   0.000249328
   -956333.971 7  21246993.723        -749.020
   1904164.233 6  21483929.647       -3510.492
  -1512960.810 7  21586597.066        -364.697
   1228624.796 7  20879589.705       -2745.641
  -3302176.144 5  23030841.990        1536.974
   -205684.483 5  24149709.168        1213.216
 98  9 30 16 18 30.0000000  0  6G21G17G03G23G01G31                   0.000261375
   -948817.312 7  21248421.284        -754.826
   1939295.122 6  21490608.395       -3516.451
  -1509272.110 7  21587298.294        -373.524
   1256107.250 7  20884822.080       -2751.407
  -3317524.157 5  23027919.341        1532.399
   -217789.342 5  24147404.319        1207.391
 98  9 30 16 18 40.0000000  0  6G21G17G03G23G01G31                   0.000273444
   -941239.684 7  21249864.657        -760.945
   1974488.445 6  21497306.104       -3522.557
  -1505490.947 7  21588016.265        -382.913
   1283650.676 7  20890057.746       -2757.146
  -3332817.029 5  23025012.361        1526.987
   -229834.326 5  24145103.692        1201.616
 98  9 30 16 18 50.0000000  0  6G21G17G03G23G01G31                   0.000285566
   -933604.267 7  21251319.405        -766.522
   2009739.719 6  21504018.120       -3527.956
  -1501620.043 7  21588746.899        -391.370
   1311251.214 7  20895312.014       -2762.682
  -3348057.532 6  23022114.253        1521.634
   -241821.711 5  24142827.461        1196.284
 98  9 30 16 19  0.0000000  0  6G21G17G03G23G01G31                   0.000297682
   -925910.881 7  21252780.736        -772.574
   2045048.347 6  21510732.570       -3534.085
  -1497660.496 7  21589510.946        -400.739
   1338907.680 7  20900575.512       -2768.855
  -3363246.625 6  23019227.378        1516.080
   -253750.644 5  24140558.314        1189.584
 98  9 30 16 19 10.0000000  0  6G21G17G03G23G01G31                   0.000309821
   -918156.525 7  21254254.015        -778.674
   2080418.065 6  21517466.553       -3540.163
  -1493610.609 7  21590279.857        -409.468
   1366621.489 7  20905853.247       -2774.197
  -3378382.871 6  23016345.081        1511.301
   -265619.323 5  24138300.471        1184.065
 98  9 30 16 19 20.0000000  0  6G21G17G03G23G01G31                   0.000321984
   -910339.819 7  21255745.037        -784.795
   2115850.669 6  21524214.200       -3546.202
  -1489469.518 7  21591070.446        -418.570
   1394393.972 7  20911136.420       -2780.078
  -3393463.984 6  23013468.151        1505.258
   -277425.450 6  24136060.300        1177.612
 98  9 30 16 19 30.0000000  0  6G21G17G03G23G01G31                   0.000334170
   -902461.514 7  21257243.215        -791.331
   2151347.225 6  21530968.001       -3553.224
  -1485238.951 7  21591869.694        -428.070
   1422224.401 7  20916431.112       -2786.581
  -3408490.762 6  23010612.469        1499.731
   -289169.042 6  24133824.780        1171.080
 98  9 30 16 19 40.0000000  0  6G21G17G03G23G01G31                   0.000346345
   -894518.701 7  21258756.703        -797.444
   2186910.915 6  21537734.250       -3559.497
  -1480916.909 7  21592693.480        -436.581
   1450115.492 7  20921738.539       -2791.949
  -3423459.800 6  23007763.370        1494.519
   -300847.371 5  24131597.058        1165.045
 98  9 30 16 19 50.0000000  0  6G21G17G03G23G01G31                   0.000358558
   -886514.054 6  21260277.846        -803.822
   2222538.027 6  21544510.588       -3565.936
  -1476506.857 7  21593534.081        -445.543
   1478064.603 7  20927059.488       -2797.685
  -3438374.310 6  23004923.715        1488.661
   -312463.980 6  24129387.295        1158.504
 98  9 30 16 20  0.0000000  0  6G21G17G03G23G01G31                   0.000370792
   -878449.441 6  21261813.012        -809.601
   2258226.703 6  21551303.452       -3572.041
  -1472009.756 7  21594389.205        -454.321
   1506070.036 7  20932387.878       -2803.596
  -3453236.671 6  23002093.290        1483.412
   -324019.674 6  24127187.762        1152.525
 98  9 30 16 20 10.0000000  0  6G21G17G03G23G01G31                   0.000383050
   -870320.674 7  21263359.125        -816.130
   2293980.203 6  21558109.696       -3578.549
  -1467422.141 7  21595265.578        -463.531
   1534134.121 7  20937729.504       -2809.622
  -3468045.055 6  22999277.244        1478.360
   -335509.782 6  24124998.961        1145.767
 98  9 30 16 20 20.0000000  0  6G21G17G03G23G01G31                   0.000395332
   -862127.996 7  21264918.761        -822.630
   2329797.566 6  21564920.089       -3584.715
  -1462744.824 7  21596151.252        -472.079
   1562256.488 7  20943075.351       -2815.295
  -3482800.563 6  22996464.848        1473.126
   -346935.043 6  24122828.620        1139.194
 98  9 30 16 20 30.0000000  0  6G21G17G03G23G01G31                   0.000407618
   -853874.078 7  21266485.550        -828.928
   2365676.086 6  21571749.586       -3591.780
  -1457979.990 7  21597058.820        -481.422
   1590435.010 7  20948441.302       -2821.104
  -3497504.928 6  22993666.332        1467.650
   -358298.435 6  24120661.497        1133.032
 98  9 30 16 20 40.0000000  0  6G21G17G03G23G01G31                   0.000419918
   -845555.384 7  21268073.518        -835.124
   2401619.118 6  21578591.816       -3597.444
  -1453124.359 7  21597985.132        -489.856
   1618673.350 7  20953817.342       -2826.563
  -3512154.553 6  22990875.328        1462.637
   -369596.693 6  24118510.330        1126.854
 98  9 30 16 20 50.0000000  0  6G21G17G03G23G01G31                   0.000432261
   -837173.080 7  21269664.347        -841.283
   2437624.780 6  21585437.195       -3603.464
  -1448179.601 7  21598924.108        -498.694
   1646969.501 7  20959199.534       -2832.352
  -3526751.052 6  22988106.145        1457.431
   -380830.049 6  24116368.534        1120.702
 98  9 30 16 21  0.0000000  0  6G21G17G03G23G01G31                   0.000444637
   -828728.087 6  21271269.271        -848.073
   2473691.936 6  21592302.966       -3610.263
  -1443147.556 7  21599879.325        -507.983
   1675322.838 7  20964595.893       -2838.666
  -3541295.018 6  22985337.393        1451.889
   -391998.659 6  24114247.274        1113.594
 98  9 30 16 21 10.0000000  0  7G21G17G03G23G01G29G31                0.000457009
   -820219.177 7  21272890.078        -854.060
   2509823.362 6  21599178.322       -3616.359
  -1438027.349 7  21600858.009        -516.577
   1703735.728 7  20970001.338       -2844.229
  -3555784.845 6  22982576.152        1446.397
    -16433.37515  24371575.179        1705.725
   -403100.438 6  24112136.315        1107.054
 98  9 30 16 21 20.0000000  0  7G21G17G03G23G01G29G31                0.000469414
   -811647.539 7  21274527.555        -860.448
   2546019.982 6  21606069.491       -3623.018
  -1432818.617 7  21601846.351        -525.505
   1732208.903 7  20975421.736       -2850.380
  -3570221.456 6  22979830.437        1441.183
    -33469.202 6  24368330.144        1701.331
   -414136.126 6  24110038.664        1100.322
 98  9 30 16 21 30.0000000  0  7G21G17G03G23G01G29G31                0.000481841
   -803012.907 7  21276167.179        -866.980
   2582281.916 6  21612968.173       -3629.701
  -1427519.763 7  21602853.439        -534.595
   1760743.383 7  20980846.356       -2856.938
  -3584603.822 6  22977093.021        1435.289
    -50464.342 6  24365093.765        1697.282
   -425105.495 6  24107950.243        1093.390
 98  9 30 16 21 40.0000000  0  7G21G17G03G23G01G29G31                0.000494229
   -794314.593 7  21277816.819        -873.299
   2618609.019 6  21619881.735       -3636.134
  -1422130.169 7  21603882.062        -543.874
   1789340.874 7  20986291.938       -2862.988
  -3598930.947 6  22974362.116        1430.202
    -67418.616 6  24361865.257        1693.668
   -436007.626 6  24105872.839        1086.922
 98  9 30 16 21 50.0000000  0  8G21G17G03G26G23G01G29G31             0.000506688
   -785552.696 7  21279490.426        -879.037
   2654999.726 6  21626804.598       -3641.899
  -1416649.397 7  21604924.565        -552.240
     25580.48415  24440712.267       -5260.187
   1818001.007 7  20991746.750       -2868.788
  -3613202.917 6  22971649.383        1425.107
    -84332.769 6  24358644.689        1689.993
   -446843.119 6  24103807.813        1080.852
 98  9 30 16 22  0.0000000  0  8G21G17G03G26G23G01G29G31             0.000519190
   -776729.297 7  21281170.259        -885.550
   2691450.842 6  21633744.490       -3648.398
  -1411079.066 7  21605984.168        -561.711
     78216.352 5  24450721.123       -5266.716
   1846720.842 7  20997209.646       -2875.134
  -3627422.473 6  22968949.815        1419.504
   -101209.323 6  24355436.715        1685.983
   -457613.579 6  24101769.903        1073.723
 98  9 30 16 22 10.0000000  0  8G21G17G03G26G23G01G29G31             0.000531691
   -767843.428 7  21282860.251        -891.962
   2727964.050 6  21640690.320       -3654.735
  -1405417.577 7  21607063.016        -570.901
    130912.621 6  24460741.425       -5272.694
   1875500.916 7  21002685.922       -2881.305
  -3641587.959 6  22966255.255        1414.003
   -118047.782 6  24352231.960        1681.892
   -468317.362 6  24099734.998        1067.212
 98  9 30 16 22 20.0000000  0  8G21G17G03G26G23G01G29G31             0.000544211
   -758894.916 7  21284561.046        -897.987
   2764539.759 6  21647650.173       -3661.020
  -1399665.489 7  21608157.963        -579.877
    183668.733 5  24470779.471       -5279.053
   1904340.944 7  21008176.292       -2887.189
  -3655698.370 6  22963570.569        1408.597
   -134848.998 6  24349036.076        1678.520
   -478953.634 6  24097704.242        1060.315
 98  9 30 16 22 30.0000000  0  8G21G17G03G26G23G01G29G31             0.000556768
   -749882.659 7  21286276.723        -904.572
   2801180.558 6  21654622.188       -3667.445
  -1393821.114 7  21609267.576        -589.287
    236486.822 5  24480836.477       -5285.034
   1933243.607 7  21013676.035       -2893.726
  -3669750.650 6  22960888.601        1402.330
   -151611.187 6  24345844.485        1674.490
   -489520.887 6  24095696.597        1053.136
 98  9 30 16 22 40.0000000  0  8G21G17G03G26G23G01G29G31             0.000569343
   -740810.263 7  21288001.773        -910.509
   2837883.823 6  21661607.440       -3673.517
  -1387887.758 7  21610398.510        -597.806
    289363.856 6  24490898.204       -5290.654
   1962206.470 7  21019183.933       -2899.313
  -3683747.067 6  22958228.956        1396.944
   -168337.033 6  24342661.480        1670.677
   -500023.243 6  24093698.823        1047.215
 98  9 30 16 22 50.0000000  0  8G21G17G03G26G23G01G29G31             0.000581917
   -731675.590 7  21289744.351        -916.592
   2874652.896 6  21668605.570       -3680.646
  -1381863.563 7  21611538.673        -607.167
    342301.269 5  24500971.594       -5297.006
   1991231.808 7  21024711.579       -2906.009
  -3697685.466 6  22955575.249        1390.927
   -185024.229 6  24339482.767        1666.821
   -510457.350 6  24091707.776        1039.975
 98  9 30 16 23  0.0000000  0  8G21G17G03G26G23G01G29G31             0.000594533
   -722478.015 7  21291493.797        -922.873
   2911488.496 6  21675612.572       -3686.896
  -1375747.009 7  21612708.600        -616.284
    395300.030 5  24511057.147       -5303.006
   2020319.991 7  21030244.305       -2911.743
  -3711565.771 6  22952936.710        1385.286
   -201673.037 6  24336318.006        1663.029
   -520822.282 6  24089732.397        1033.273
 98  9 30 16 23 10.0000000  0  8G21G17G03G26G23G01G29G31             0.000607174
   -713218.668 7  21293253.403        -929.234
   2948390.320 6  21682632.452       -3693.907
  -1369538.116 7  21613891.977        -625.856
    448359.289 6  24521150.069       -5309.212
   2049470.165 7  21035792.985       -2918.608
  -3725389.572 6  22950300.961        1379.396
   -218284.858 6  24333162.617        1659.120
   -531119.570 6  24087780.700        1026.227
 98  9 30 16 23 20.0000000  0  8G21G17G03G26G23G01G29G31             0.000619831
   -703898.716 6  21295024.886        -935.010
   2985357.431 6  21689673.652       -3699.850
  -1363236.668 7  21615088.876        -634.636
    501477.074 5  24531259.660       -5314.532
   2078681.151 7  21041349.535       -2924.126
  -3739158.566 6  22947683.599        1374.475
   -234861.701 5  24330004.724        1656.212
   -541350.941 6  24085836.014        1020.193
 98  9 30 16 23 30.0000000  0  8G21G17G03G26G23G01G29G31             0.000632507
   -694518.485 7  21296811.035        -941.061
   3022388.702 6  21696721.507       -3706.274
  -1356841.962 7  21616306.882        -644.164
    554650.443 5  24541382.488       -5320.253
   2107951.677 7  21046918.892       -2930.013
  -3752873.649 6  22945079.974        1368.929
   -251404.430 5  24326857.205        1653.006
   -551517.551 6  24083899.199        1013.647
 98  9 30 16 23 40.0000000  0  8G21G17G03G26G23G01G29G31             0.000645194
   -685075.679 7  21298608.274        -947.063
   3059484.868 6  21703777.303       -3712.395
  -1350351.803 7  21617542.631        -653.708
    607879.805 5  24551514.258       -5325.250
   2137283.197 7  21052501.699       -2935.768
  -3766532.758 6  22942479.712        1363.889
   -267911.608 5  24323720.633        1649.345
   -561618.416 6  24081970.753        1007.410
 98  9 30 16 23 50.0000000  0  8G21G17G03G26G23G01G29G31             0.000657886
   -675569.113 7  21300422.399        -953.848
   3096645.962 6  21710841.184       -3719.745
  -1343766.018 7  21618792.189        -663.620
    661166.560 5  24561652.254       -5331.871
   2166675.925 7  21058094.952       -2942.360
  -3780133.473 6  22939888.609        1357.022
   -284383.047 5  24320584.347        1645.471
   -571652.678 6  24080059.409        1000.142
 98  9 30 16 24  0.0000000  0  8G21G17G03G26G23G01G29G31             0.000670609
   -666001.340 7  21302238.598        -960.153
   3133871.351 6  21717928.890       -3726.155
  -1337085.925 7  21620065.356        -673.105
    714509.612 5  24571801.983       -5337.318
   2196126.907 7  21063697.578       -2948.326
  -3793676.544 6  22937313.030        1351.506
   -300819.591 5  24317449.635        1641.574
   -581622.569 6  24078167.524         993.707
 98  9 30 16 24 10.0000000  0  8G21G17G03G26G23G01G29G31             0.000683353
   -656373.142 7  21304065.743        -965.805
   3171161.715 6  21725029.187       -3732.402
  -1330311.533 7  21621348.039        -682.091
    767907.806 5  24581964.161       -5342.552
   2225634.305 7  21069314.656       -2953.610
  -3807162.706 6  22934747.825        1345.906
   -317220.797 5  24314327.515        1638.939
   -591528.899 6  24076282.292         987.857
 98  9 30 16 24 20.0000000  0  8G21G17G03G26G23G01G29G31             0.000696117
   -646685.613 7  21305910.632        -971.481
   3208517.392 6  21732134.207       -3739.015
  -1323444.262 7  21622661.415        -691.194
    821360.507 5  24592137.356       -5347.144
   2255197.751 7  21074943.037       -2959.131
  -3820592.554 6  22932190.848        1340.703
   -333586.061 5  24311216.055        1634.804
   -601373.417 6  24074412.658         981.786
 98  9 30 16 24 30.0000000  0  8G21G17G03G26G23G01G29G31             0.000708888
   -636937.519 7  21307771.833        -977.792
   3245940.865 6  21739258.330       -3745.897
  -1316482.816 7  21623982.233        -700.938
    874870.291 5  24602321.857       -5354.088
   2284820.828 7  21080578.288       -2965.616
  -3833964.340 6  22929645.390        1334.656
   -349911.861 5  24308104.954        1630.217
   -611155.236 6  24072550.393         974.847
 98  9 30 16 24 40.0000000  0  8G21G17G03G26G23G01G29G31             0.000721694
   -627132.489 7  21309635.395        -983.507
   3283428.634 6  21746395.259       -3752.110
  -1309429.960 7  21625328.806        -710.292
    928435.696 5  24612515.945       -5359.634
   2314501.099 7  21086223.555       -2971.129
  -3847282.138 6  22927113.383        1329.053
   -366200.556 5  24305013.528        1626.698
   -620878.676 6  24070696.284         969.536
 98  9 30 16 24 50.0000000  0  8G21G17G03G26G23G01G29G31             0.000734498
   -617267.596 7  21311512.336        -989.711
   3320982.757 6  21753538.913       -3758.739
  -1302283.651 7  21626685.253        -719.699
    982059.316 5  24622716.973       -5365.759
   2344241.380 7  21091884.848       -2977.130
  -3860544.075 6  22924589.389        1323.445
   -382449.079 5  24301920.313        1622.562
   -630541.848 6  24068856.627         962.927
 98  9 30 16 25  0.0000000  0  8G21G17G03G26G23G01G29G31             0.000747337
   -607342.981 7  21313396.432        -995.531
   3358602.038 6  21760699.023       -3765.297
  -1295044.998 7  21628066.312        -728.680
   1035740.226 5  24632941.109       -5371.487
   2374040.134 7  21097558.376       -2982.875
  -3873751.089 6  22922067.899        1317.972
   -398657.925 5  24298836.399        1618.430
   -640144.632 6  24067028.203         957.182
 98  9 30 16 25 10.0000000  0  8G21G17G03G26G23G01G29G31             0.000760159
   -597359.595 7  21315302.850       -1001.216
   3396285.094 6  21767866.002       -3771.846
  -1287713.256 7  21629456.457        -737.999
   1089478.633 5  24643148.218       -5376.637
   2403897.061 7  21103238.057       -2988.741
  -3886903.919 6  22919567.229        1312.370
   -414827.360 5  24295758.065        1614.740
   -649686.968 6  24065216.521         951.352
 98  9 30 16 25 20.0000000  0  8G21G17G03G26G23G01G29G31             0.000773034
   -587319.554 7  21317211.486       -1006.732
   3434029.562 6  21775050.508       -3777.495
  -1280290.315 7  21630872.573        -746.841
   1143271.309 5  24653389.453       -5381.467
   2433809.904 7  21108931.259       -2993.983
  -3900003.597 6  22917077.075        1307.324
   -430958.012 5  24292688.674        1611.334
   -659172.218 6  24063411.134         945.811
 98  9 30 16 25 30.0000000  0  8G21G17G03G26G23G01G29G31             0.000785890
   -577220.951 7  21319135.648       -1012.924
   3471837.436 6  21782243.673       -3784.319
  -1272775.130 7  21632301.281        -756.224
   1197119.877 5  24663627.471       -5388.098
   2463781.538 7  21114635.409       -3000.342
  -3913047.242 5  22914589.140        1301.620
   -447046.055 5  24289622.934        1606.326
   -668598.211 6  24061614.977         939.818
 98  9 30 16 25 40.0000000  0  8G21G17G03G26G23G01G29G31             0.000798819
   -567063.140 7  21321068.538       -1019.159
   3509709.026 6  21789448.213       -3790.544
  -1265167.971 6  21633748.949        -765.468
   1251024.839 5  24673890.028       -5393.626
   2493812.141 7  21120346.712       -3006.171
  -3926033.360 5  22912120.523        1295.364
   -463089.844 5  24286574.435        1601.892
   -677964.412 6  24059837.995         933.427
 98  9 30 16 25 50.0000000  0  8G21G17G03G26G23G01G29G31             0.000811739
   -556846.346 7  21323007.366       -1024.623
   3547644.199 6  21796668.779       -3797.108
  -1257470.867 7  21635216.793        -774.040
   1304986.707 5  24684157.235       -5398.637
   2523901.793 7  21126072.111       -3011.855
  -3938961.376 5  22909664.211        1290.279
   -479088.860 5  24283527.582        1597.826
   -687270.311 6  24058064.661         927.623
 98  9 30 16 26  0.0000000  0  8G21G17G03G26G23G01G29G31             0.000824691
   -546571.634 7  21324965.512       -1030.266
   3585641.734 6  21803902.009       -3802.844
  -1249686.401 6  21636695.440        -782.755
   1359005.596 5  24694435.532       -5404.433
   2554048.191 7  21131808.885       -3017.331
  -3951832.189 6  22907217.630        1284.148
   -495044.826 5  24280498.472        1593.639
   -696516.931 6  24056305.422         921.716
 98  9 30 16 26 10.0000000  0  8G21G17G03G26G23G01G29G31             0.000837671
   -536240.341 7  21326931.886       -1036.189
   3623700.910 6  21811148.546       -3809.059
  -1241815.388 6  21638190.185        -791.669
   1413081.031 5  24704740.158       -5410.608
   2584250.242 7  21137561.614       -3023.206
  -3964647.339 6  22904777.202        1278.830
   -510957.909 5  24277466.501        1589.238
   -705704.129 6  24054560.707         915.883
 98  9 30 16 26 20.0000000  0  8G21G17G03G26G23G01G29G31             0.000850635
   -525849.064 7  21328909.635       -1042.258
   3661823.834 6  21818401.666       -3815.524
  -1233855.158 6  21639705.106        -800.523
    418638.03214  24715028.543       -5416.327
   2614511.488 7  21143316.274       -3029.073
  -3977406.188 6  22902348.292        1273.195
   -526825.814 5  24274452.846        1584.453
   -714828.422 6  24052817.638         909.380
 98  9 30 16 26 30.0000000  0  8G21G17G03G26G23G01G29G31             0.000863633
   -515398.692 7  21330896.042       -1048.083
   3700006.888 6  21825666.662       -3821.396
  -1225809.107 6  21641241.419        -808.995
    472826.68114  24725334.529       -5422.012
   2644830.843 7  21149087.104       -3034.845
  -3990110.590 6  22899928.039        1267.711
   -542651.902 4  24271447.059        1580.852
   -723890.737 6  24051092.598         903.426
 98  9 30 16 26 40.0000000  0  7G21G17G03G26G23G01G31                0.000876698
   -504890.860 7  21332893.824       -1053.720
   3738247.891 6  21832944.107       -3827.164
  -1217678.614 6  21642781.380        -817.450
    527069.42614  24735655.180       -5426.691
   2675207.340 7  21154867.021       -3040.697
  -4002760.751 6  22897522.454        1262.349
   -732891.458 6  24049378.790         896.992
 98  9 30 16 26 50.0000000  0  7G21G17G03G26G23G01G31                0.000889727
   -494326.295 6  21334905.200       -1059.586
   3776545.256 6  21840226.989       -3832.910
  -1209463.290 6  21644347.600        -826.054
   -467212.01714  24745988.209       -5431.248
   2705638.527 7  21160658.742       -3046.095
  -4015357.678 6  22895124.523        1257.205
   -741829.790 6  24047680.080         890.604
 98  9 30 16 27  0.0000000  0  7G21G17G03G26G23G01G31                0.000902805
   -483703.705 7  21336928.238       -1065.414
   3814898.260 6  21847526.399       -3838.420
  -1201162.593 7  21645927.985        -834.386
   -412866.91014  24756334.618       -5436.937
   2736122.907 7  21166458.047       -3051.328
  -4027900.347 6  22892746.340        1251.726
   -750704.183 6  24045993.889         883.946
 98  9 30 16 27 10.0000000  0  6G21G17G03G23G01G31                   0.000915830
