     2.11           OBSERVATION DATA    G (GPS)             RINEX VERSION / TYPE
teqc  2010Mar17     gpsops              20120106 00:08:39UTCPGM / RUN BY / DATE
Linux 2.4.21-27.ELsmp|Opteron|gcc -static|Linux x86_64|=+   COMMENT
BIT 2 OF LLI FLAGS DATA COLLECTED UNDER A/S CONDITION       COMMENT
ABPO                                                        MARKER NAME
33302M001                                                   MARKER NUMBER
GGN                 JPL                                     OBSERVER / AGENCY
UC2200524014        ASHTECH UZ-12       CQ00                REC # / TYPE / VERS
CR6200342009        ASH701945G_M    SCIT                    ANT # / TYPE
  4097216.6805  4429119.0287 -2065771.3676                  APPROX POSITION XYZ
        0.0083        0.0000        0.0000                  ANTENNA: DELTA H/E/N
     1     1                                                WAVELENGTH FACT L1/2
     7    L1    L2    P1    P2    C1    S1    S2            # / TYPES OF OBSERV
    30.0000                                                 INTERVAL
                                                            COMMENT
This data is provided as a public service by NASA/JPL.      COMMENT
No warranty is expressed or implied regarding suitability   COMMENT
for use.  For further information, contact:                 COMMENT
Dave Stowers, NASA/JPL m/s 238-600                          COMMENT
4800 Oak Grove Drive, Pasadena CA 91109 USA                 COMMENT
                                                            COMMENT
Forced Modulo Decimation to 30 seconds                      COMMENT
 SNR is mapped to RINEX snr flag value [0-9]                COMMENT
  L1 & L2: min(max(int(snr_dBHz/6), 0), 9)                  COMMENT
pseudorange smoothing corrections not applied               COMMENT
  2012     1     5     0     0    0.0000000     GPS         TIME OF FIRST OBS
                                                            END OF HEADER
 12  1  5  0  0  0.0000000  0  9G04G15G26G29G08G10G02G07G05
 -20495248.64748 -15953144.76948  21250950.9614   21250955.2194   21250950.6704
        53.0004         48.0004
 -12082711.27248  -9350643.60447  23114148.0794   23114153.3564   23114148.1834
        49.0004         44.0004
 -22347525.64649 -17097457.71548  20936767.7884   20936772.2094   20936767.6614
        56.0004         51.0004
  -1954267.07147  -1472570.21246  24446515.8904   24446520.3954   24446515.3794
        43.0004         38.0004
 -16561287.13548 -12732274.82847  22149698.9404   22149704.5084   22149699.6234
        49.0004         45.0004
 -13965602.59448 -10821596.84747  22864778.2344   22864783.9654   22864777.5494
        48.0004         43.0004
 -21158164.63949 -16452615.66048  20389666.6544   20389668.8694   20389667.1244
        57.0004         52.0004
  -8265503.67547  -6404422.95046  23953193.4924   23953196.5304   23953193.5204
        46.0004         41.0004
 -16351527.71048 -12707729.06548  22002037.8884   22002042.1484   22002037.8214
        53.0004         49.0004
 12  1  5  0  0 30.0000000  0  9G04G15G26G29G08G10G02G07G05
 -20447173.73048 -15915683.80848  21260099.2864   21260103.9914   21260099.3004
        53.0004         48.0004
 -12154373.15748  -9406483.98747  23100511.3004   23100516.2044   23100511.1824
        49.0004         44.0004
 -22353668.61449 -17102244.43048  20935598.3634   20935603.1544   20935598.4814
        56.0004         51.0004
  -2017943.97247  -1522188.55246  24434398.5454   24434402.8864   24434397.3924
        43.0004         38.0004
 -16560505.83748 -12731666.01747  22149847.0604   22149852.9014   22149847.0124
        49.0004         45.0004
 -13938229.25348 -10800266.99247  22869988.3274   22869992.5874   22869989.3094
        48.0004         43.0004
 -21162482.46349 -16455980.19448  20388845.1364   20388847.1214   20388845.4704
        57.0004         52.0004
  -8208977.73347  -6360376.76246  23963949.9604   23963953.2314   23963948.9414
        46.0004         41.0004
 -16368365.99148 -12720849.80748  21998833.6254   21998837.6634   21998833.4224
        53.0004         48.0004
 12  1  5  0  1  0.0000000  0  9G04G15G26G29G08G10G02G07G05
 -20398650.15948 -15877873.24048  21269332.8124   21269337.5134   21269332.5594
        53.0004         48.0004
 -12225731.26048  -9462087.64847  23086933.5094   23086938.1494   23086933.0444
        49.0004         45.0004
 -22359370.10949 -17106687.14348  20934513.5844   20934518.0014   20934513.6424
        56.0004         51.0004
  -2081210.87047  -1571487.37246  24422358.4654   24422362.3724   24422359.1474
        43.0004         38.0004
 -16559154.58548 -12730613.07647  22150105.0154   22150109.9624   22150105.4834
        49.0004         45.0004
 -13910858.20348 -10778938.90747  22875195.5074   22875202.0964   22875196.4444
        48.0004         43.0004
 -21166380.13549 -16459017.34148  20388103.5364   20388105.3724   20388103.9824
        57.0004         52.0004
  -8151993.22947  -6315973.25946  23974792.8084   23974796.6384   23974792.2494
        46.0004         41.0004
 -16385211.07848 -12733975.84248  21995628.0874   21995632.1174   21995628.1664
        53.0004         49.0004
 12  1  5  0  1 30.0000000  0  9G04G15G26G29G08G10G02G07G05
 -20349676.97548 -15839712.32348  21278652.3094   21278656.7344   21278651.9164
        53.0004         48.0004
 -12296783.33648  -9517452.86447  23073412.2884   23073416.7544   23073411.8754
        50.0004         45.0004
 -22364629.69249 -17110785.51048  20933512.9984   20933516.9644   20933512.8884
        56.0004         51.0004
  -2144064.92547  -1620464.53946  24410396.3794   24410401.6944   24410396.5954
        43.0004         38.0004
 -16557230.46248 -12729113.74347  22150470.8174   22150475.4254   22150471.0304
        49.0004         45.0004
 -13883487.51848 -10757611.10947  22880404.3814   22880409.4514   22880406.7604
        48.0004         43.0004
 -21169855.06049 -16461725.07848  20387442.3254   20387444.3914   20387442.7204
        57.0004         52.0004
  -8094550.53047  -6271212.71046  23985724.0764   23985728.7274   23985724.7944
        45.0004         41.0004
 -16402061.60548 -12747106.11448  21992421.3654   21992425.2454   21992421.4734
        53.0004         48.0004
 12  1  5  0  2  0.0000000  0  9G04G15G26G29G08G10G02G07G05
 -20300256.06648 -15801202.52948  21288056.5274   21288061.6454   21288056.0264
        53.0004         48.0004
 -12367530.23648  -9572580.29947  23059949.6114   23059954.3694   23059949.3654
        50.0004         45.0004
 -22369450.27549 -17114541.79648  20932595.3094   20932599.8764   20932595.7104
        56.0004         51.0004
  -2206506.29747  -1669120.13246  24398516.3334   24398520.5534   24398516.1064
        43.0004         38.0004
 -16554734.21748 -12727168.60247  22150946.2224   22150950.5394   22150947.2014
        49.0004         45.0004
 -13856117.83348 -10736284.09347  22885614.0724   22885617.3134   22885612.7334
        48.0004         43.0004
 -21172907.90749 -16464103.90848  20386861.2564   20386863.1924   20386861.5964
        57.0004         52.0004
  -8036652.28947  -6226097.19746  23996742.2234   23996746.7634   23996740.4824
        45.0004         41.0004
 -16418919.34648 -12760242.01448  21989213.6574   21989217.5784   21989213.1824
        53.0004         48.0004
 12  1  5  0  2 30.0000000  0  9G04G15G26G29G08G10G02G07G05
 -20250388.52048 -15762344.71048  21297546.2054   21297551.0244   21297546.2904
        52.0004         48.0004
 -12437971.61648  -9627469.66947  23046545.7044   23046549.4784   23046544.7524
        50.0004         45.0004
 -22373833.75249 -17117957.47748  20931760.9934   20931765.5374   20931760.8654
        55.0004         51.0004
  -2268534.03747  -1717453.40446  24386712.1174   24386715.4074   24386711.6434
        43.0004         38.0004
 -16551665.96248 -12724777.74647  22151529.8544   22151535.1054   22151529.5744
        49.0004         45.0004
 -13828749.10548 -10714957.81547  22890821.5074   22890826.7134   22890823.1444
        48.0004         43.0004
 -21175538.30549 -16466153.56148  20386360.5994   20386362.7994   20386360.9834
        57.0004         52.0004
  -7978300.83847  -6180628.53746  24007845.8174   24007850.1124   24007845.6884
        45.0004         40.0004
 -16435785.25348 -12773384.27148  21986004.3474   21986007.9144   21986004.0534
        53.0004         48.0004
 12  1  5  0  3  0.0000000  0  9G04G15G26G29G08G10G02G07G05
 -20200072.85748 -15723137.70748  21307121.0784   21307125.5724   21307120.9494
        52.0004         48.0004
 -12508105.07148  -9682119.09147  23033198.9424   23033203.3694   23033198.3214
        50.0004         45.0004
 -22377779.07449 -17121031.74748  20931010.4424   20931015.0204   20931010.4974
        55.0004         51.0004
  -2330144.83447  -1765461.83146  24374987.8364   24374993.9184   24374986.7944
        43.0004         38.0004
 -16548022.34148 -12721938.54247  22152223.2034   22152227.5014   22152224.2604
        49.0004         45.0004
 -13801378.48848 -10693630.05747  22896029.8134   22896034.8214   22896029.6934
        48.0004         43.0004
 -21177743.06349 -16467871.54548  20385941.2014   20385943.2164   20385941.5374
        57.0004         52.0004
  -7919495.39747  -6134806.10846  24019036.2964   24019039.7414   24019035.5714
        45.0004         40.0004
 -16452657.66048 -12786531.58548  21982793.2114   21982797.1724   21982792.8294
        53.0004         48.0004
 12  1  5  0  3 30.0000000  0  9G04G15G26G29G08G10G02G07G05
 -20149309.54748 -15683581.89048  21316780.6214   21316785.0604   21316780.3664
        52.0004         48.0004
 -12577929.85448  -9736527.95447  23019912.1054   23019915.7144   23019911.6824
        50.0004         45.0004
 -22381287.42049 -17123765.50648  20930342.7404   20930347.2444   20930342.7524
        55.0004         51.0004
  -2391336.87147  -1813143.91546  24363344.4524   24363348.1104   24363343.9714
        43.0004         39.0004
 -16543802.61248 -12718650.43147  22153026.9124   22153030.6734   22153026.4034
        49.0004         45.0004
 -13774005.62748 -10672300.55847  22901238.2214   22901243.1694   22901239.8794
        48.0004         43.0004
 -21179521.20549 -16469257.10948  20385602.8134   20385605.0914   20385603.1444
        57.0004         52.0004
  -7860237.39947  -6088631.03346  24030312.6914   24030316.9654   24030312.9194
        45.0004         40.0004
 -16469536.56248 -12799683.97848  21979581.3234   21979585.2384   21979581.2314
        53.0004         48.0004
 12  1  5  0  4  0.0000000  0  9G04G15G26G29G08G10G02G07G05
 -20098100.18648 -15643678.50947  21326525.7604   21326529.9154   21326525.4644
        52.0004         47.0004
 -12647445.62148  -9790696.04547  23006683.5334   23006687.8274   23006683.7294
        50.0004         45.0004
 -22384360.81949 -17126160.35448  20929758.1684   20929762.6364   20929758.1394
        56.0004         51.0004
  -2452109.96147  -1860499.51446  24351778.8794   24351783.1814   24351778.3454
        43.0004         39.0004
 -16539007.22448 -12714913.74647  22153938.3064   22153943.1574   22153939.9244
        49.0004         45.0004
 -13746630.64847 -10650969.41347  22906447.4944   22906452.6434   22906448.0684
        47.0004         43.0004
 -21180872.76749 -16470310.29548  20385345.4844   20385347.6614   20385346.0494
        57.0004         52.0004
  -7800529.58847  -6042105.46046  24041675.5614   24041678.1274   24041674.4154
        45.0004         40.0004
 -16486422.82648 -12812842.09748  21976367.8004   21976371.8844   21976367.8614
        53.0004         48.0004
 12  1  5  0  4 30.0000000  0  9G04G15G26G29G08G10G02G07G05
 -20046444.43448 -15603427.28247  21336355.2374   21336359.6644   21336355.3004
        52.0004         47.0004
 -12716651.12448  -9844622.39747  22993513.7384   22993518.7104   22993513.6524
        50.0004         45.0004
 -22386999.95949 -17128216.81648  20929255.6584   20929260.3814   20929255.8454
        56.0004         51.0004
  -2512461.82247  -1907526.90946  24340294.2444   24340299.4684   24340293.9204
        44.0004         39.0004
 -16533634.45948 -12710727.16247  22154960.7314   22154966.0834   22154960.7894
        49.0004         45.0004
 -13719251.92948 -10629635.33647  22911657.0494   22911663.0664   22911658.2304
        48.0004         43.0004
 -21181796.11849 -16471029.79348  20385169.8554   20385171.8954   20385170.3424
        57.0004         53.0004
  -7740372.70647  -5995229.96746  24053123.2234   24053125.5824   24053122.5864
        45.0004         40.0004
 -16503316.19048 -12826005.74548  21973153.4004   21973156.9074   21973153.1854
        53.0004         48.0004
 12  1  5  0  5  0.0000000  0  9G04G15G26G29G08G10G02G07G05
 -19994345.25548 -15562830.52847  21346268.9574   21346274.2374   21346268.1944
        52.0004         47.0004
 -12785548.05648  -9898308.30947  22980402.6894   22980408.3284   22980403.0794
        50.0004         46.0004
 -22389208.39449 -17129937.66348  20928835.7664   20928839.8294   20928835.6664
        56.0004         51.0004
  -2572393.47047  -1954226.86946  24328889.8844   24328894.6494   24328889.5284
        44.0004         40.0004
 -16527685.69548 -12706091.74047  22156093.4874   22156098.3864   22156094.3704
        49.0004         45.0004
 -13691870.79848 -10608299.40147  22916867.3194   22916872.6864   22916869.1964
        48.0004         43.0004
 -21182292.55349 -16471416.63548  20385075.4904   20385077.4134   20385075.8514
        57.0004         52.0004
  -7679770.47647  -5948007.43446  24064655.1934   24064657.7604   24064654.6554
        45.0004         40.0004
 -16520219.10048 -12839176.82648  21969936.9934   21969940.6334   21969936.6624
        53.0004         48.0004
 12  1  5  0  5 30.0000000  0  9G04G15G26G29G08G10G02G07G05
 -19941800.15548 -15521886.30847  21356267.8834   21356273.0774   21356268.0724
        52.0004         47.0004
 -12854132.82448  -9951750.97847  22967352.4944   22967356.2714   22967352.0064
        50.0004         46.0004
 -22390984.33449 -17131321.49748  20928497.3344   20928502.0474   20928497.1994
        56.0004         51.0004
  -2631899.96847  -2000595.52246  24317565.6354   24317570.4574   24317565.0274
        44.0004         40.0004
 -16521157.39048 -12701004.73247  22157335.3864   22157339.8294   22157335.4124
        50.0004         45.0004
 -13664483.77248 -10586958.85147  22922080.1534   22922083.8704   22922080.9804
        48.0004         43.0004
 -21182358.35349 -16471467.91248  20385063.0874   20385064.8184   20385063.4514
        57.0004         52.0004
  -7618721.68247  -5900436.95046  24076273.0364   24076275.2374   24076270.8194
        45.0004         40.0004
 -16537128.44848 -12852352.91248  21966719.3564   21966723.2344   21966719.0334
        53.0004         49.0004
 12  1  5  0  6  0.0000000  0  9G04G15G26G29G08G10G02G07G05
 -19888809.15148 -15480594.62247  21366351.8634   21366357.3434   21366351.9774
        52.0004         47.0004
 -12922404.70048 -10004949.79647  22954360.0374   22954365.1014   22954359.7304
        50.0004         45.0004
 -22392328.33149 -17132368.75748  20928241.7634   20928246.3874   20928241.8014
        56.0004         51.0004
  -2690980.40447  -2046632.19846  24306323.1144   24306327.1714   24306322.6864
        44.0004         40.0004
 -16514048.20848 -12695465.09647  22158689.0034   22158693.8804   22158689.3324
        50.0004         45.0004
 -13637089.41248 -10565612.60447  22927292.0084   22927298.2534   22927294.7354
        48.0004         43.0004
 -21181991.55749 -16471182.10248  20385132.5864   20385134.8544   20385132.8174
        57.0004         52.0004
  -7557227.14847  -5852519.13146  24087973.7824   24087976.8954   24087974.9134
        45.0004         40.0004
 -16554043.78948 -12865533.68048  21963499.9854   21963503.8394   21963499.7584
        53.0004         48.0004
 12  1  5  0  6 30.0000000  0  9G04G15G26G29G08G10G02G07G05
 -19835376.18348 -15438958.54348  21376520.1934   21376525.0194   21376519.8894
        52.0004         48.0004
 -12990365.25248 -10057906.00047  22941427.7564   22941431.6014   22941427.4454
        50.0004         45.0004
 -22393245.06549 -17133083.08248  20928067.5414   20928071.8944   20928067.4774
        56.0004         51.0004
  -2749636.17547  -2092337.98546  24295160.9734   24295166.4424   24295160.8214
        44.0004         39.0004
 -16506360.86048 -12689474.93947  22160150.2494   22160155.2514   22160150.8904
        49.0004         45.0004
 -13609690.34548 -10544262.68047  22932505.7054   22932511.9444   22932507.1384
        48.0004         43.0004
 -21181194.66749 -16470561.15048  20385284.3504   20385286.3214   20385284.7244
        57.0004         52.0004
  -7495291.83347  -5804257.84046  24099758.9564   24099762.9444   24099760.1844
        45.0004         40.0004
 -16570968.60448 -12878721.82748  21960279.6824   21960283.3844   21960279.7144
        53.0004         49.0004
 12  1  5  0  7  0.0000000  0  9G04G15G26G29G08G10G02G07G05
 -19781499.35048 -15396976.60148  21386772.4824   21386777.3094   21386772.5084
        52.0004         48.0004
 -13058011.39948 -10110617.25347  22928555.9374   22928559.7754   22928555.2534
        50.0004         45.0004
 -22393733.43949 -17133463.62248  20927974.2554   20927978.6364   20927974.4584
        56.0004         51.0004
  -2807863.47647  -2137709.90546  24284081.2744   24284085.4184   24284080.7054
        44.0004         39.0004
 -16498092.25148 -12683031.85047  22161723.7034   22161728.3724   22161725.1174
        49.0004         44.0004
 -13582283.15647 -10522906.43347  22937721.5074   22937727.8304   22937722.2334
        47.0004         43.0004
 -21179964.34949 -16469602.45348  20385518.4624   20385520.5114   20385518.8234
        57.0004         52.0004
  -7432914.96347  -5755652.49146  24111630.0394   24111632.6634   24111629.8954
        45.0004         40.0004
 -16587900.66248 -12891915.60548  21957057.4104   21957061.0724   21957056.6684
        53.0004         49.0004
 12  1  5  0  7 30.0000000  0  9G04G15G26G29G08G10G02G07G05
 -19727181.10448 -15354650.70048  21397108.9024   21397114.0064   21397108.6674
        52.0004         48.0004
 -13125344.42748 -10163084.54747  22915741.4554   22915746.4934   22915741.3604
        50.0004         45.0004
 -22393796.07449 -17133512.41548  20927962.4424   20927967.0264   20927962.4214
        56.0004         51.0004
  -2865662.21847  -2182747.82546  24273082.8104   24273084.2104   24273081.7214
        43.0004         38.0004
 -16489242.93748 -12676136.26447  22163408.7674   22163412.4914   22163408.6054
        49.0004         44.0004
 -13554868.71547 -10501544.52647  22942938.0804   22942944.0044   22942938.3774
        47.0004         43.0004
 -21178301.38549 -16468306.62848  20385834.9214   20385836.9334   20385835.2084
        57.0004         52.0004
  -7370099.59047  -5706705.43846  24123582.3354   24123585.9264   24123582.8644
        44.0004         40.0004
 -16604841.35548 -12905116.12748  21953834.0894   21953837.0644   21953833.7824
        53.0004         48.0004
 12  1  5  0  8  0.0000000  0  9G04G15G26G29G08G10G02G07G05
 -19672418.83248 -15311978.80647  21407530.1144   21407534.6514   21407530.6804
        52.0004         47.0004
 -13192360.83448 -10215305.10947  22902989.2204   22902993.7774   22902988.7234
        50.0004         46.0004
 -22393431.61949 -17133228.41648  20928031.5544   20928036.4924   20928031.7004
        56.0004         51.0004
  -2923028.66047  -2227448.88146  24262164.4774   24262171.4834   24262165.1844
        43.0004         38.0004
 -16479809.63048 -12668785.61547  22165204.2624   22165208.6194   22165204.2084
        49.0004         45.0004
 -13527443.15247 -10480173.97147  22948157.2234   22948161.9594   22948158.7304
        47.0004         43.0004
 -21176201.79049 -16466670.58548  20386234.5474   20386236.6134   20386234.9654
        57.0004         52.0004
  -7306844.48847  -5657415.75946  24135620.3404   24135623.7714   24135620.8004
        44.0004         40.0004
 -16621787.85548 -12918321.15248  21950608.9394   21950613.2314   21950608.3064
        53.0004         49.0004
 12  1  5  0  8 30.0000000  0  9G04G15G26G29G08G10G02G07G05
 -19617216.09648 -15268963.68847  21418034.6804   21418039.3784   21418034.3574
        52.0004         47.0004
 -13259062.66948 -10267280.53747  22890296.1144   22890300.6394   22890296.1634
        51.0004         46.0004
 -22392644.20749 -17132614.83848  20928181.7574   20928186.2164   20928181.7804
        56.0004         51.0004
  -2979964.13547  -2271814.20846  24251330.8604   24251335.8634   24251330.3004
        44.0004         39.0004
 -16469794.55748 -12660981.64647  22167110.0634   22167114.1474   22167110.0194
        49.0004         45.0004
 -13500008.88947 -10458796.63147  22953378.0914   22953383.2154   22953379.5274
        47.0004         43.0004
 -21173667.81249 -16464696.06848  20386716.5044   20386718.6034   20386716.8484
        57.0004         52.0004
  -7243154.40247  -5607787.11646  24147740.0274   24147743.2204   24147739.1204
        44.0004         40.0004
 -16638743.05048 -12931532.95348  21947382.8634   21947386.0824   21947382.3024
        53.0004         48.0004
 12  1  5  0  9  0.0000000  0 10G04G15G26G27G29G08G10G02G07G05
 -19561578.18548 -15225609.47747  21428622.3554   21428627.1224   21428622.0324
        52.0004         47.0004
 -13325453.99948 -10319014.00647  22877663.0414   22877666.1914   22877662.4984
        50.0004         45.0004
 -22391439.71449 -17131676.26448  20928410.8294   20928415.2604   20928411.0194
        56.0004         51.0004
  -1739801.87248  -1289156.34346  25064812.0754   25064819.4254   25064814.0584
        50.0004         38.0004
  -3036471.89847  -2315846.19246  24240577.3864   24240582.3474   24240578.2694
        44.0004         40.0004
 -16459202.16848 -12652727.82147  22169125.1644   22169129.6394   22169125.9714
        49.0004         45.0004
 -13472569.47047 -10437415.26547  22958599.5084   22958604.2944   22958600.7414
        47.0004         43.0004
 -21170702.71349 -16462385.61648  20387281.1194   20387283.0714   20387281.5464
        57.0004         53.0004
  -7179035.19347  -5557824.10146  24159941.5374   24159944.6734   24159940.2724
        45.0004         40.0004
 -16655711.60748 -12944755.17348  21944153.3924   21944157.4684   21944153.1834
        53.0004         49.0004
 12  1  5  0  9 30.0000000  0 10G04G15G26G27G29G08G10G02G07G05
 -19505498.75648 -15181911.23247  21439293.8314   21439298.3344   21439293.7294
        52.0004         47.0004
 -13391527.05448 -10370499.45947  22865089.0304   22865092.7884   22865089.0284
        50.0004         45.0004
 -22389812.07549 -17130407.96148  20928720.2974   20928725.3544   20928720.4214
        56.0004         51.0004
  -1840646.44947  -1367736.48546  25045621.5314   25045629.2624   25045624.0734
        46.0004         38.0004
  -3092543.07747  -2359537.97946  24229907.4904   24229912.0834   24229908.4514
        44.0004         40.0004
 -16448024.19448 -12644017.69747  22171252.1144   22171255.9194   22171252.8484
        49.0004         45.0004
 -13445116.57647 -10416023.40747  22963823.7774   22963829.4184   22963824.4684
        47.0004         43.0004
 -21167298.85349 -16459733.27848  20387928.7634   20387930.9214   20387928.8844
        57.0004         52.0004
  -7114481.44047  -5507522.47546  24172225.3864   24172228.3064   24172225.6824
        45.0004         40.0004
 -16672686.34848 -12957982.21048  21940922.8974   21940927.0664   21940922.7834
        53.0004         49.0004
 12  1  5  0 10  0.0000000  0 10G04G15G26G27G29G08G10G02G07G05
 -19448976.56848 -15137867.97847  21450049.6614   21450054.1534   21450049.9794
        52.0004         47.0004
 -13457279.11248 -10421734.80347  22852576.7164   22852581.3684   22852576.3304
        50.0004         46.0004
 -22387761.06949 -17128809.76948  20929110.7634   20929115.3214   20929110.9484
        56.0004         51.0004
  -1941631.33447  -1446425.98446  25026404.9634   25026413.7104   25026406.6054
        44.0004         38.0004
  -3148175.24647  -2402887.68946  24219321.4454   24219326.2614   24219321.8974
        45.0004         41.0004
 -16436258.31348 -12634849.46847  22173491.5004   22173496.0954   22173492.1954
        49.0004         45.0004
 -13417647.75947 -10394619.14047  22969051.1204   22969057.6274   22969051.1784
        47.0004         43.0004
 -21163453.30549 -16456736.75948  20388660.3444   20388662.3794   20388660.8094
        57.0004         52.0004
  -7049493.13447  -5456882.24346  24184592.1184   24184595.4504   24184592.1674
        45.0004         40.0004
 -16689665.32548 -12971212.57748  21937692.1354   21937695.9534   21937692.0554
        53.0004         48.0004
 12  1  5  0 10 30.0000000  0 10G04G15G26G27G29G08G10G02G07G05
 -19392017.97248 -15093484.65447  21460888.1964   21460893.0504   21460888.1294
        52.0004         47.0004
 -13522715.17648 -10472723.92947  22840124.0634   22840129.2934   22840123.6564
        50.0004         46.0004
 -22385293.46649 -17126886.94848  20929580.4664   20929584.8234   20929580.5024
        56.0004         51.0004
  -2042760.09947  -1525227.56546  25007160.9794   25007168.7134   25007161.5804
        43.0004         38.0004
  -3203372.71447  -2445898.68046  24208817.7954   24208822.1814   24208817.4594
        45.0004         40.0004
 -16423909.84748 -12625227.27847  22175840.8714   22175845.5654   22175841.6984
        49.0004         45.0004
 -13390167.65847 -10373206.09247  22974281.1714   22974284.6754   22974282.2774
        47.0004         43.0004
 -21159171.01049 -16453399.91448  20389475.2334   20389477.5004   20389475.6524
        57.0004         52.0004
  -6984077.47847  -5405909.01646  24197041.6844   24197044.4874   24197039.6244
        45.0004         40.0004
 -16706653.92448 -12984450.43348  21934458.9514   21934463.3454   21934458.7254
        53.0004         48.0004
 12  1  5  0 11  0.0000000  0 10G04G15G26G27G29G08G10G02G07G05
 -19334617.97548 -15048757.39747  21471811.4394   21471815.9704   21471810.7394
        52.0004         47.0004
 -13587828.98548 -10523461.94947  22827734.2594   22827738.2794   22827733.8764
        51.0004         46.0004
 -22382405.03549 -17124636.21348  20930129.9494   20930134.5674   20930129.9544
        56.0004         51.0004
  -2144024.80147  -1604135.08146  24987890.8584   24987899.1154   24987890.8234
        43.0004         39.0004
  -3258128.25147  -2488565.27846  24198397.9064   24198402.5324   24198398.6744
        45.0004         40.0004
 -16410972.48748 -12615146.20747  22178303.0844   22178307.2534   22178303.1414
        49.0004         45.0004
 -13362669.47547 -10351778.94747  22979511.7724   22979518.7914   22979514.0364
        47.0004         43.0004
 -21154445.37749 -16449717.62048  20390374.5594   20390376.5474   20390374.9834
        57.0004         52.0004
  -6918230.44647  -5354599.65446  24209571.3214   24209574.5584   24209571.7724
        44.0004         40.0004
 -16723646.57348 -12997691.44248  21931226.1024   21931228.9564   21931225.5034
        53.0004         48.0004
 12  1  5  0 11 30.0000000  0 10G04G15G26G27G29G08G10G02G07G05
 -19276780.55748 -15003689.28547  21482816.9684   21482821.6414   21482817.7734
        51.0004         47.0004
 -13652623.37648 -10573951.07547  22815404.1664   22815408.1904   22815404.1874
        51.0004         46.0004
 -22379100.38949 -17122061.15848  20930759.0324   20930763.0754   20930759.0254
        56.0004         51.0004
  -2245426.60547  -1683149.42346  24968596.0194   24968602.0974   24968595.6734
        44.0004         39.0004
  -3312443.66747  -2530888.94646  24188061.7494   24188066.7834   24188061.8874
        44.0004         40.0004
 -16397449.08748 -12604608.47947  22180876.1334   22180880.5024   22180876.5504
        49.0004         45.0004
 -13335155.99547 -10330339.87747  22984749.0804   22984753.7124   22984750.4484
        47.0004         43.0004
 -21149278.74449 -16445691.67548  20391357.7854   20391360.0224   20391358.1764
        57.0004         52.0004
  -6851956.93147  -5302957.94946  24222182.5924   24222185.5374   24222184.1124
        44.0004         40.0004
 -16740646.99848 -13010938.51448  21927990.6894   21927994.3834   21927990.2024
        53.0004         48.0004
 12  1  5  0 12  0.0000000  0 10G04G15G26G27G29G08G10G02G07G05
 -19218508.62748 -14958282.59147  21493906.0394   21493910.8744   21493905.7204
        51.0004         47.0004
 -13717100.06548 -10624192.62547  22803133.5204   22803138.9364   22803134.0464
        50.0004         45.0004
 -22375383.30549 -17119164.71248  20931465.9294   20931470.6584   20931466.0094
        56.0004         51.0004
  -2346965.33847  -1762270.44346  24949273.2794   24949279.4374   24949274.1514
        44.0004         39.0004
  -3366320.23347  -2572870.65746  24177810.4504   24177813.6494   24177810.1754
        45.0004         40.0004
 -16383341.47948 -12593615.52447  22183560.9544   22183565.8894   22183561.4454
        49.0004         45.0004
 -13307628.29947 -10308889.74547  22989987.0184   22989992.2244   22989987.2944
        47.0004         43.0004
 -21143672.81949 -16441323.43348  20392424.7184   20392426.5344   20392424.7914
        57.0004         52.0004
  -6785260.98747  -5250987.10946  24234874.6014   24234877.7934   24234875.3144
        44.0004         40.0004
 -16757656.68748 -13024192.79048  21924753.6864   21924757.4074   21924753.6644
        53.0004         48.0004
 12  1  5  0 12 30.0000000  0 10G04G15G26G27G29G08G10G02G07G05
 -19159800.09748 -14912535.70047  21505078.3254   21505083.5014   21505077.9564
        52.0004         47.0004
 -13781255.25048 -10674183.65847  22790926.7444   22790930.4764   22790926.0624
        50.0004         46.0004
 -22371251.55549 -17115945.15148  20932252.4474   20932256.8514   20932252.4404
        56.0004         51.0004
  -2448635.67947  -1841494.01346  24929926.0234   24929931.4914   24929927.2914
        44.0004         39.0004
  -3419753.48647  -2614506.92446  24167641.8604   24167645.4524   24167641.9344
        45.0004         40.0004
 -16368645.82248 -12582164.35347  22186356.9984   22186361.8974   22186357.8724
        49.0004         45.0004
 -13280082.40347 -10287425.41447  22995228.8374   22995233.8404   22995230.1864
        47.0004         43.0004
 -21137623.31449 -16436609.54348  20393575.9614   20393577.8724   20393576.4234
        57.0004         52.0004
  -6718141.33147  -5198686.07646  24247646.6704   24247650.3224   24247648.3284
        45.0004         40.0004
 -16774672.24648 -13037451.65848  21921515.6854   21921519.2594   21921515.1234
        53.0004         48.0004
 12  1  5  0 13  0.0000000  0 10G04G15G26G27G29G08G10G02G07G05
 -19100655.63448 -14866449.11647  21516332.9544   21516338.1784   21516333.0944
        52.0004         47.0004
 -13845087.95648 -10723923.39647  22778778.8574   22778783.3764   22778778.7084
        50.0004         46.0004
 -22366706.95949 -17112403.89248  20933117.1694   20933121.6574   20933116.9904
        56.0004         51.0004
  -2550435.45247  -1920818.44446  24910554.1404   24910560.3304   24910555.0194
        44.0004         40.0004
  -3472742.29247  -2655796.88546  24157557.7144   24157562.4234   24157558.1514
        45.0004         40.0004
 -16353362.20148 -12570255.02347  22189265.4764   22189270.5524   22189266.2274
        49.0004         45.0004
 -13252516.96847 -10265945.87047  23000473.6884   23000478.0794   23000475.8624
        47.0004         42.0004
 -21131129.78849 -16431549.65748  20394811.4174   20394813.2744   20394811.7434
        57.0004         52.0004
  -6650599.58147  -5146056.15946  24260499.8514   24260503.3204   24260498.5564
        44.0004         40.0004
 -16791694.01648 -13050715.35248  21918276.6414   21918280.4254   21918276.0594
        53.0004         48.0004
 12  1  5  0 13 30.0000000  0 10G04G15G26G27G29G08G10G02G07G05
 -19041078.89848 -14820025.69147  21527670.2384   21527675.5514   21527670.5214
        52.0004         47.0004
 -13908600.95548 -10773414.02747  22766693.2254   22766697.9304   22766693.4264
        51.0004         47.0004
 -22361753.87549 -17108544.33148  20934060.0414   20934064.3454   20934059.9534
        56.0004         51.0004
  -2652365.38147  -2000244.28446  24891157.9964   24891164.3444   24891158.3514
        44.0004         39.0004
  -3525288.80947  -2696742.21646  24147558.8244   24147563.7034   24147559.0714
        45.0004         41.0004
 -16337493.20048 -12557889.55147  22192285.4384   22192290.1714   22192285.4734
        49.0004         45.0004
 -13224934.56947 -10244453.07347  23005723.3974   23005729.1834   23005723.1574
        47.0004         42.0004
 -21124194.17349 -16426145.27948  20396131.2674   20396133.3704   20396131.6634
        57.0004         52.0004
  -6582640.35947  -5093100.91946  24273432.8754   24273436.5854   24273431.9404
        44.0004         40.0004
 -16808724.72248 -13063986.01548  21915035.5884   21915039.5544   21915035.2894
        53.0004         48.0004
 12  1  5  0 14  0.0000000  0 10G04G15G26G27G29G08G10G02G07G05
 -18981067.99748 -14773263.96447  21539090.1894   21539094.4764   21539090.3874
        52.0004         47.0004
 -13971790.63948 -10822652.74547  22754668.8764   22754672.9924   22754668.2554
        51.0004         46.0004
 -22356391.00249 -17104365.45348  20935080.3244   20935084.6594   20935080.3954
        56.0004         51.0004
  -2754420.14647  -2079767.40446  24871737.9744   24871743.5874   24871737.2114
        44.0004         39.0004
  -3577388.55747  -2737339.38346  24137646.7574   24137649.0304   24137646.0584
        45.0004         41.0004
 -16321035.55748 -12545065.40947  22195417.7064   22195421.6134   22195417.8264
        49.0004         45.0004
 -13197331.15347 -10222943.93547  23010975.3414   23010980.4204   23010977.7654
        47.0004         43.0004
 -21116813.03449 -16420393.74548  20397535.9984   20397537.9974   20397536.4494
        57.0004         52.0004
  -6514262.91547  -5039819.78846  24286443.6324   24286447.2154   24286443.1654
        44.0004         40.0004
 -16825761.24048 -13077261.20448  21911793.8464   21911797.7424   21911793.3224
        53.0004         48.0004
 12  1  5  0 14 30.0000000  0 10G04G15G26G27G29G08G10G02G07G05
 -18920625.84048 -14726166.18647  21550592.1254   21550596.1384   21550591.2204
        51.0004         47.0004
 -14034658.84748 -10871640.95947  22742704.8314   22742709.5364   22742704.3774
        51.0004         46.0004
 -22350621.96149 -17099870.08548  20936178.0304   20936182.2944   20936178.0124
        56.0004         51.0004
  -2856599.91547  -2159387.92546  24852292.4314   24852297.9444   24852292.5824
        44.0004         39.0004
  -3629043.05547  -2777589.61246  24127815.0104   24127819.0904   24127814.9234
        45.0004         40.0004
 -16303991.12848 -12531784.03547  22198661.4344   22198665.0224   22198660.8524
        49.0004         45.0004
 -13169708.04947 -10201419.43547  23016233.3004   23016237.6834   23016232.3664
        47.0004         42.0004
 -21108988.03449 -16414296.35448  20399024.8564   20399026.9744   20399025.1104
        57.0004         52.0004
  -6445471.25447  -4986215.93046  24299534.4394   24299537.7844   24299534.0024
        44.0004         40.0004
 -16842806.20548 -13090542.98048  21908550.3274   21908553.6094   21908550.0554
        53.0004         48.0004
 12  1  5  0 15  0.0000000  0 10G04G15G26G27G29G08G10G02G07G05
 -18859751.07348 -14678731.31847  21562176.3044   21562180.6814   21562176.0454
        51.0004         47.0004
 -14097203.01648 -10920376.68347  22730803.7644   22730807.5014   22730802.8364
        51.0004         46.0004
 -22344445.79549 -17095057.47048  20937353.6184   20937357.6664   20937353.5314
        56.0004         51.0004
  -2958900.04247  -2239102.21546  24832826.6534   24832832.3514   24832826.7524
        44.0004         39.0004
  -3680248.41947  -2817489.88446  24118069.8824   24118075.5894   24118070.0864
        45.0004         40.0004
 -16286357.28248 -12518043.37247  22202016.5734   22202021.1144   22202016.3944
        49.0004         45.0004
 -13142061.91847 -10179877.00347  23021492.1704   23021498.6784   23021494.4094
        47.0004         42.0004
 -21100715.99949 -16407850.62048  20400599.0174   20400601.2094   20400599.4214
        57.0004         52.0004
  -6376264.61347  -4932288.66546  24312703.1974   24312706.9434   24312704.5904
        44.0004         39.0004
 -16859856.59348 -13103828.99348  21905305.6854   21905309.7554   21905305.5234
        53.0004         48.0004
 12  1  5  0 15 30.0000000  0 10G04G15G26G27G29G08G10G02G07G05
 -18798448.47548 -14630963.07347  21573841.6664   21573845.7614   21573841.2194
        51.0004         47.0004
 -14159425.94048 -10968862.06547  22718962.4774   22718967.1364   22718962.3474
        50.0004         46.0004
 -22337867.82149 -17089931.75748  20938605.1684   20938609.8194   20938605.0564
        56.0004         51.0004
  -3061321.90147  -2318911.37746  24813336.4574   24813342.5594   24813337.0444
        44.0004         39.0004
  -3731007.67147  -2857042.53046  24108412.4664   24108416.1374   24108411.5784
        44.0004         40.0004
 -16268137.87448 -12503846.41947  22205483.2184   22205488.3234   22205483.8384
        49.0004         45.0004
 -13114395.58247 -10158318.82847  23026758.4294   23026763.1934   23026759.3534
        47.0004         42.0004
 -21091999.98449 -16401058.93348  20402257.4894   20402259.8524   20402257.8734
        57.0004         52.0004
  -6306648.56947  -4878042.42146  24325950.5784   24325953.5914   24325949.6794
        44.0004         39.0004
 -16876916.12048 -13117122.10548  21902059.4164   21902062.6744   21902058.7364
        53.0004         48.0004
 12  1  5  0 16  0.0000000  0 10G04G15G26G27G29G08G10G02G07G05
 -18736714.96348 -14582859.05247  21585589.0824   21585592.8354   21585588.8574
        51.0004         47.0004
 -14221323.45348 -11017093.87447  22707183.0644   22707187.3484   22707183.4074
        51.0004         46.0004
 -22330885.64649 -17084491.08748  20939933.8404   20939938.3674   20939933.9834
        56.0004         51.0004
  -3163859.44147  -2398810.68246  24793824.0824   24793828.5634   24793824.0214
        44.0004         39.0004
  -3781315.62547  -2896243.50346  24098838.2494   24098843.0814   24098837.9444
        44.0004         40.0004
 -16249328.40248 -12489189.67747  22209061.4194   22209066.5164   22209062.9924
        49.0004         45.0004
 -13086704.42047 -10136741.30047  23032026.8874   23032032.6444   23032027.4714
        47.0004         43.0004
 -21082835.50449 -16393917.79148  20404001.7814   20404003.6104   20404001.9104
        57.0004         52.0004
  -6236621.24547  -4823475.69346  24339276.0804   24339280.0154   24339277.1374
        44.0004         39.0004
 -16893980.90248 -13130419.32148  21898811.8504   21898816.0214   21898811.5734
        53.0004         49.0004
 12  1  5  0 16 30.0000000  0 10G04G15G26G27G29G08G10G02G07G05
 -18674552.28648 -14534420.61547  21597418.1884   21597422.1014   21597417.8064
        51.0004         46.0004
 -14282896.13948 -11065072.54847  22695467.2954   22695471.7574   22695467.4354
        51.0004         46.0004
 -22323501.76749 -17078737.39748  20941338.7664   20941343.0904   20941338.7964
        56.0004         51.0004
  -3266511.29547  -2478799.04146  24774289.7444   24774295.1464   24774289.9764
        44.0004         39.0004
  -3831172.00447  -2935092.59446  24089351.3194   24089356.6544   24089350.3254
        45.0004         40.0004
 -16229929.86948 -12474073.92747  22212753.8834   22212758.5884   22212754.3104
        49.0004         45.0004
 -13058988.28047 -10115144.31947  23037301.4264   23037307.3064   23037302.9484
        47.0004         42.0004
 -21073222.59749 -16386427.22148  20405830.7964   20405833.1224   20405831.1294
        57.0004         52.0004
  -6166185.56047  -4768590.75146  24352679.4954   24352684.7654   24352679.8454
        43.0004         39.0004
 -16911051.47848 -13143721.06048  21895563.8824   21895567.0974   21895563.3714
        53.0004         49.0004
 12  1  5  0 17  0.0000000  0 10G04G15G26G27G29G08G10G02G07G05
 -18611960.15348 -14485647.54247  21609328.7054   21609332.6374   21609328.5144
        51.0004         46.0004
 -14344141.93248 -11112796.56147  22683812.3774   22683816.3284   22683812.1574
        51.0004         46.0004
 -22315716.33649 -17072670.81148  20942820.2774   20942824.9784   20942820.2294
        56.0004         51.0004
  -3369273.87847  -2558873.68946  24754734.4464   24754739.7334   24754734.9004
        44.0004         39.0004
  -3880574.77347  -2973588.24146  24079950.3384   24079954.8924   24079949.5264
        45.0004         40.0004
 -16209941.00248 -12458498.17147  22216557.7084   22216562.4934   22216558.1364
        49.0004         45.0004
 -13031245.13547 -10093526.28647  23042580.2534   23042586.9704   23042581.4134
        47.0004         43.0004
 -21063159.42249 -16378585.79148  20407745.8764   20407747.8364   20407746.0634
        57.0004         52.0004
  -6095341.87847  -4713387.90646  24366160.9234   24366164.9824   24366159.6374
        43.0004         39.0004
 -16928126.49948 -13157026.26648  21892314.2994   21892317.9844   21892313.8944
        53.0004         49.0004
 12  1  5  0 17 30.0000000  0 10G04G15G26G27G29G08G10G02G07G05
 -18548943.64148 -14436543.77447  21621320.7224   21621324.9814   21621320.3664
        51.0004         47.0004
 -14405064.70248 -11160268.85647  22672218.3524   22672224.1124   22672218.3974
        51.0004         46.0004
 -22307534.82049 -17066295.58748  20944377.3284   20944381.4584   20944377.4564
        56.0004         51.0004
  -3472148.87647  -2639035.93546  24735158.0004   24735164.4544   24735157.9944
        44.0004         39.0004
  -3929526.92147  -3011732.76246  24070634.3164   24070639.6334   24070634.9844
        45.0004         40.0004
 -16189365.64248 -12442465.40547  22220473.1054   22220478.2754   22220473.5434
        49.0004         45.0004
 -13003477.88547 -10071889.47047  23047865.2224   23047870.0644   23047866.9834
        47.0004         42.0004
 -21052649.49449 -16370396.25148  20409745.9864   20409747.6624   20409746.2844
        57.0004         52.0004
  -6024096.41347  -4657871.97946  24379719.0384   24379721.6504   24379718.8874
        43.0004         39.0004
 -16945209.73748 -13170337.86748  21889063.7994   21889067.4124   21889063.5914
        53.0004         49.0004
 12  1  5  0 18  0.0000000  0 10G04G15G26G27G29G08G10G02G07G05
 -18485501.60948 -14387108.43547  21633393.0104   21633397.7114   21633392.7024
        51.0004         46.0004
 -14465661.75848 -11207487.36447  22660687.5864   22660691.8654   22660687.9804
        51.0004         46.0004
 -22298957.10049 -17059611.63448  20946009.8044   20946014.1104   20946009.7264
        56.0004         51.0004
  -3575131.79247  -2719282.25846  24715560.1234   24715568.1064   24715561.0584
        44.0004         39.0004
  -3978025.40347  -3049523.76546  24061406.0814   24061410.7944   24061404.9774
        45.0004         41.0004
 -16168201.55148 -12425973.89847  22224500.9004   22224505.2254   22224500.4264
        49.0004         45.0004
 -12975683.54047 -10050231.54447  23053154.6024   23053160.0854   23053154.4114
        47.0004         42.0004
 -21041690.21049 -16361856.54848  20411831.3924   20411833.3504   20411831.5864
        57.0004         52.0004
  -5952448.83847  -4602042.74846  24393352.1094   24393356.0924   24393352.2054
        43.0004         39.0004
 -16962299.02848 -13183654.18148  21885811.1804   21885815.0724   21885810.7924
        53.0004         49.0004
 12  1  5  0 18 30.0000000  0 10G04G15G26G27G29G08G10G02G07G05
 -18421633.62948 -14337341.18847  21645546.7204   21645551.4384   21645546.7204
        51.0004         46.0004
 -14525931.21848 -11254450.57647  22649219.1364   22649223.0224   22649218.8444
        51.0004         46.0004
 -22289982.88449 -17052618.72348  20947717.4184   20947721.6064   20947717.2074
        56.0004         51.0004
  -3678218.80647  -2799609.69146  24695943.2604   24695950.0284   24695943.7054
        43.0004         39.0004
  -4026067.61647  -3086959.26646  24052263.3644   24052269.3084   24052263.0944
        45.0004         41.0004
 -16146447.12848 -12409022.39147  22228640.0234   22228645.8534   22228640.8084
        49.0004         45.0004
 -12947859.32347 -10028550.34447  23058448.9314   23058454.0684   23058448.9184
        47.0004         43.0004
 -21030279.33649 -16352964.96548  20414003.0014   20414004.8234   20414003.5144
        57.0004         52.0004
  -5880399.23047  -4545900.22346  24407063.5594   24407067.5564   24407061.6924
        43.0004         39.0004
 -16979392.32648 -13196973.61948  21882558.6254   21882562.7394   21882558.2484
        53.0004         49.0004
 12  1  5  0 19  0.0000000  0 10G04G15G26G27G29G08G10G02G07G05
 -18357342.24048 -14287244.01147  21657780.3144   21657785.9264   21657780.4874
        51.0004         46.0004
 -14585874.46548 -11301159.60047  22637812.8194   22637816.8684   22637812.3234
        51.0004         46.0004
 -22280615.75249 -17045319.64848  20949499.6774   20949504.1104   20949499.6904
        56.0004         51.0004
  -3781409.34147  -2880017.79246  24676305.9194   24676312.2844   24676304.8874
        43.0004         38.0004
  -4073654.36547  -3124039.86746  24043207.2274   24043211.5684   24043206.7314
        45.0004         40.0004
 -16124104.07248 -12391612.21147  22232891.0844   22232897.4714   22232891.7574
        49.0004         45.0004
 -12920006.01347 -10006846.47747  23063749.1984   23063754.1514   23063750.1354
        47.0004         42.0004
 -21018418.11149 -16343722.44548  20416259.7894   20416262.0224   20416260.0944
        57.0004         52.0004
  -5807951.60447  -4489447.54346  24420850.3124   24420854.4234   24420849.9734
        43.0004         39.0004
 -16996491.56548 -13210297.68548  21879304.4964   21879308.5144   21879304.3364
        53.0004         49.0004
 12  1  5  0 19 30.0000000  0 10G04G15G26G27G29G08G10G02G07G05
 -18292629.19448 -14236818.27547  21670095.0864   21670099.7334   21670095.5644
        51.0004         46.0004
 -14645491.69748 -11347614.56847  22626466.4424   22626471.6634   22626466.9734
        51.0004         46.0004
 -22270857.56649 -17037715.85848  20951357.0694   20951360.9044   20951357.0514
        56.0004         51.0004
  -3884701.72547  -2960505.25746  24656649.6244   24656656.7984   24656648.3694
        43.0004         38.0004
  -4120785.33647  -3160765.29446  24034239.1974   24034244.3664   24034239.2284
        45.0004         41.0004
 -16101173.19248 -12373743.97847  22237255.4044   22237260.7614   22237256.2874
        49.0004         45.0004
 -12892123.14447  -9985119.57447  23069055.4644   23069061.2584   23069056.4944
        47.0004         42.0004
 -21006106.81349 -16334129.22248  20418602.5244   20418604.8954   20418602.9474
        57.0004         52.0004
  -5735108.57847  -4432686.75946  24434712.1614   24434716.0644   24434711.9274
        43.0004         39.0004
 -17013596.71348 -13223626.36548  21876049.9504   21876053.6134   21876049.3664
        53.0004         49.0004
 12  1  5  0 20  0.0000000  0 10G04G15G26G27G29G08G10G02G07G05
 -18227492.88148 -14186062.71147  21682490.6454   21682495.1064   21682490.0234
        51.0004         46.0004
 -14704779.77148 -11393813.06247  22615185.0294   22615189.0184   22615184.8814
        51.0004         46.0004
 -22260707.31549 -17029806.56148  20953288.2924   20953292.6444   20953288.1214
        56.0004         51.0004
  -3988090.82047  -3041068.08146  24636975.2514   24636982.0034   24636974.2384
        43.0004         38.0004
  -4167457.03147  -3197132.85146  24025357.7684   24025362.4634   24025357.4764
        46.0004         41.0004
 -16077651.73248 -12355415.55847  22241731.1054   22241736.3104   22241731.7774
        49.0004         45.0004
 -12864207.39347  -9963367.03747  23074367.9614   23074372.1274   23074368.3744
        47.0004         42.0004
 -20993342.00649 -16324182.61548  20421031.5774   20421033.9474   20421031.9434
        57.0004         52.0004
  -5661869.30647  -4375617.21746  24448648.0964   24448652.3354   24448648.8124
        44.0004         39.0004
 -17030705.28948 -13236957.71648  21872794.3094   21872797.8454   21872794.0604
        53.0004         49.0004
 12  1  5  0 20 30.0000000  0 10G04G15G26G27G29G08G10G02G07G05
 -18161936.78848 -14134980.05847  21694965.8954   21694969.8004   21694965.8744
        51.0004         46.0004
 -14763741.00848 -11439756.87447  22603965.7714   22603969.8164   22603965.4104
        51.0004         46.0004
 -22250169.39849 -17021595.18548  20955293.4914   20955297.7284   20955293.3554
        56.0004         51.0004
  -4091576.76747  -3121706.39046  24617280.7524   24617289.5414   24617281.4404
        43.0004         38.0004
  -4213670.78247  -3233143.57846  24016564.3794   24016567.3694   24016564.6714
        46.0004         41.0004
 -16053542.24148 -12336628.92647  22246318.6704   22246323.7654   22246320.2734
        49.0004         45.0004
 -12836260.26847  -9941590.07347  23079686.3374   23079690.3044   23079686.7624
        47.0004         42.0004
 -20980125.65649 -16313884.15448  20423546.4174   20423548.8374   20423546.5144
        57.0004         52.0004
  -5588238.20447  -4318242.34546  24462660.1184   24462663.9194   24462659.3804
        44.0004         39.0004
 -17047819.13048 -13250293.16648  21869537.3934   21869541.3704   21869537.0824
        53.0004         49.0004
 12  1  5  0 21  0.0000000  0 10G04G15G26G27G29G08G10G02G07G05
 -18095962.16648 -14083571.27247  21707520.3484   21707524.7394   21707520.5024
        51.0004         46.0004
 -14822375.03048 -11485445.74047  22592807.3234   22592812.4234   22592807.1184
        51.0004         46.0004
 -22239245.35849 -17013082.93748  20957372.3714   20957376.3944   20957372.5074
        56.0004         51.0004
  -4195157.41547  -3202418.48146  24597570.9144   24597578.3064   24597571.5304
        43.0004         38.0004
  -4259425.79847  -3268796.81946  24007856.8304   24007860.8434   24007856.7014
        46.0004         41.0004
 -16028844.73748 -12317384.09847  22251019.2264   22251023.8454   22251019.9714
        49.0004         45.0004
 -12808280.64347  -9919787.76647  23085008.7984   23085015.4344   23085010.3524
        47.0004         42.0004
 -20966457.58549 -16303233.71448  20426147.6054   20426149.7424   20426147.9784
        57.0004         52.0004
  -5514217.48547  -4260563.88746  24476745.5234   24476748.6204   24476743.2024
        43.0004         39.0004
 -17064938.07648 -13263632.58148  21866280.0254   21866283.6094   21866279.8194
        53.0004         49.0004
 12  1  5  0 21 30.0000000  0 10G04G15G26G27G29G08G10G02G07G05
 -18029566.39148 -14031834.32047  21720154.8804   21720159.4624   21720154.9634
        51.0004         46.0004
 -14880677.98848 -11530876.59347  22581713.0094   22581716.8044   22581712.7464
        51.0004         46.0004
 -22227933.30449 -17004268.34348  20959524.9944   20959529.0854   20959525.0424
        56.0004         51.0004
  -4298826.74447  -3283199.67046  24577842.6834   24577850.9824   24577844.0434
        43.0004         38.0004
  -4304717.87147  -3304089.32146  23999238.2504   23999242.7134   23999238.1764
        46.0004         41.0004
 -16003556.05548 -12297678.62247  22255831.3434   22255835.8974   22255832.1734
        49.0004         45.0004
 -12780263.93047  -9897956.57747  23090340.3744   23090345.4234   23090342.0224
        47.0004         42.0004
 -20952333.51849 -16292227.95048  20428835.4404   20428837.3424   20428835.7294
        57.0004         52.0004
  -5439805.43147  -4202580.49946  24490906.0234   24490909.5004   24490903.7464
        43.0004         39.0004
 -17082058.34348 -13276973.04048  21863022.0734   21863025.7374   21863021.5754
        53.0004         49.0004
 12  1  5  0 22  0.0000000  0 10G04G15G26G27G29G08G10G02G07G05
 -17962756.10248 -13979774.37747  21732868.8024   21732873.5364   21732868.1844
        51.0004         46.0004
 -14938654.83148 -11576053.36347  22570680.2064   22570684.5154   22570679.8154
        51.0004         47.0004
 -22216240.32149 -16995156.91848  20961749.8684   20961754.5334   20961749.6854
        56.0004         51.0004
  -4402587.84647  -3364052.37846  24558099.1234   24558106.5794   24558098.1774
        43.0004         38.0004
  -4349551.57047  -3339024.65246  23990707.7624   23990711.8374   23990706.8574
        46.0004         41.0004
 -15977681.58148 -12277516.67547  22260754.3414   22260760.0094   22260756.1704
        49.0004         45.0004
 -12752214.25547  -9876099.69447  23095679.3394   23095685.2784   23095680.0904
        47.0004         42.0004
 -20937758.29649 -16280870.64448  20431608.8524   20431610.8234   20431609.1824
        57.0004         52.0004
  -5365009.36747  -4144297.87646  24505140.2454   24505142.1274   24505138.4514
        43.0004         39.0004
 -17099185.18049 -13290318.62448  21859763.3224   21859766.5774   21859762.9084
        54.0004         49.0004
 12  1  5  0 22 30.0000000  0 10G04G15G26G27G29G08G10G02G07G05
 -17895529.05948 -13927389.68247  21745661.3294   21745665.6734   21745661.5224
        51.0004         46.0004
 -14996302.18948 -11620973.35147  22559709.8804   22559714.8114   22559709.8004
        51.0004         47.0004
 -22204164.74849 -16985747.36648  20964047.7744   20964052.2734   20964047.7514
        56.0004         51.0004
  -4506434.93347  -3444972.07846  24538336.8664   24538344.0274   24538337.3374
        43.0004         38.0004
  -4393922.48547  -3373599.35646  23982262.7984   23982266.9844   23982262.9074
        45.0004         40.0004
 -15951218.60048 -12256896.15347  22265791.1864   22265795.7964   22265791.4044
        49.0004         45.0004
 -12724127.48047  -9854213.90247  23101023.1874   23101029.0554   23101023.9524
        47.0004         42.0004
 -20922728.10049 -16269158.81848  20434469.2584   20434471.1214   20434469.6724
        57.0004         52.0004
  -5289828.22747  -4085715.18046  24519444.6904   24519449.6964   24519445.5554
        43.0004         39.0004
 -17116314.85449 -13303666.41148  21856503.2064   21856506.7134   21856502.5394
        54.0004         49.0004
 12  1  5  0 23  0.0000000  0 10G04G15G26G27G29G08G10G02G07G05
 -17827887.12148 -13874681.69347  21758533.5254   21758538.3484   21758532.9614
        51.0004         46.0004
 -15053620.05348 -11665636.62847  22548803.1294   22548807.3584   22548802.8324
        52.0004         47.0004
 -22191708.73249 -16976041.37048  20966418.1264   20966422.5564   20966418.1654
        56.0004         51.0004
  -4610366.08847  -3525957.30346  24518559.8814   24518566.5754   24518559.4024
        43.0004         38.0004
  -4437830.71347  -3407813.54546  23973908.0964   23973912.8474   23973908.6134
        45.0004         41.0004
 -15924167.60148 -12235817.43947  22270937.4754   22270942.8874   22270939.3234
        49.0004         45.0004
 -12696003.07747  -9832298.78647  23106375.3384   23106380.5104   23106376.8284
        47.0004         42.0004
 -20907243.56449 -16257092.96048  20437415.8214   20437417.4994   20437415.9474
        57.0004         52.0004
  -5214264.27947  -4026834.22046  24533825.7544   24533828.4874   24533824.8714
        43.0004         39.0004
 -17133447.49349 -13317016.50248  21853243.1524   21853246.8674   21853242.8834
        54.0004         49.0004
 12  1  5  0 23 30.0000000  0 10G04G15G26G27G29G08G10G02G07G05
 -17759831.57248 -13821651.41047  21771483.2814   21771489.0594   21771483.1214
        51.0004         46.0004
 -15110608.52448 -11710043.21747  22537958.9694   22537963.1404   22537958.5374
        52.0004         47.0004
 -22178874.39049 -16966040.57648  20968860.2914   20968864.7254   20968860.4174
        56.0004         51.0004
  -4714379.36547  -3607006.52346  24498766.6324   24498773.7254   24498767.0904
        43.0004         38.0004
  -4481275.86047  -3441666.92346  23965640.5014   23965644.0334   23965639.4524
        45.0004         41.0004
 -15896529.13348 -12214280.96147  22276197.0964   22276203.2484   22276198.7214
        49.0004         45.0004
 -12667840.39047  -9810353.83247  23111734.1274   23111739.1424   23111734.5164
        47.0004         42.0004
 -20891304.28349 -16244672.75748  20440448.8364   20440450.6214   20440449.3574
        57.0004         52.0004
  -5138320.56047  -3967657.29446  24548276.5044   24548280.8044   24548275.5504
        43.0004         39.0004
 -17150583.25848 -13330369.03748  21849981.7054   21849985.6844   21849981.3234
        53.0004         49.0004
 12  1  5  0 24  0.0000000  0 10G04G15G26G27G29G08G10G02G07G05
 -17691363.95848 -13768300.03947  21784512.9664   21784516.9524   21784512.8674
        51.0004         46.0004
 -15167267.55648 -11754193.10947  22527176.7434   22527180.9594   22527176.4134
        52.0004         47.0004
 -22165663.72349 -16955746.53948  20971374.1494   20971378.5174   20971374.3144
        56.0004         51.0004
  -4818472.51547  -3688117.97546  24478958.4384   24478964.7254   24478957.9944
        43.0004         39.0004
  -4524256.96247  -3475158.69946  23957461.7284   23957465.1324   23957462.7404
        45.0004         41.0004
 -15868303.38048 -12192286.85047  22281568.8154   22281574.3094   22281569.7104
        49.0004         45.0004
 -12639638.53747  -9788378.37047  23117100.6114   23117106.2664   23117101.8784
        46.0004         42.0004
 -20874910.02849 -16231898.01148  20443568.6214   20443570.5824   20443568.8764
        57.0004         52.0004
  -5061998.88847  -3908185.89146  24562800.8794   24562803.6564   24562800.4704
        43.0004         39.0004
 -17167721.96248 -13343723.83748  21846720.8044   21846724.1894   21846720.6194
        53.0004         49.0004
 12  1  5  0 24 30.0000000  0 10G04G15G26G27G29G08G10G02G07G05
 -17622484.89048 -13714628.04447  21797619.8974   21797625.2924   21797619.5824
        51.0004         46.0004
 -15223596.28648 -11798085.60447  22516457.7404   22516461.1404   22516457.4314
        51.0004         46.0004
 -22152077.52749 -16945159.88148  20973959.6924   20973964.0334   20973959.8934
        56.0004         51.0004
  -4922642.49147  -3769289.29546  24459135.9064   24459141.8034   24459136.2114
        43.0004         39.0004
  -4566773.09447  -3508288.11346  23949371.3864   23949375.1754   23949370.4474
        46.0004         41.0004
 -15839490.30548 -12169835.09347  22287052.2234   22287056.4274   22287052.7194
        49.0004         45.0004
 -12611396.09247  -9766371.27647  23122475.6024   23122480.8374   23122476.3494
        46.0004         42.0004
 -20858059.80249 -16218767.96748  20446774.8024   20446776.9214   20446775.4264
        57.0004         52.0004
  -4985300.76447  -3848421.14246  24577394.0344   24577398.9254   24577394.1984
        43.0004         38.0004
 -17184862.61148 -13357080.16948  21843458.9244   21843462.0124   21843458.3164
        53.0004         49.0004
 12  1  5  0 25  0.0000000  0 10G04G15G26G27G29G08G10G02G07G05
 -17553194.73548 -13660635.73347  21810805.1464   21810810.6424   21810805.1004
        51.0004         46.0004
 -15279593.59748 -11841719.87947  22505801.8854   22505805.6134   22505801.4144
        51.0004         47.0004
 -22138117.12349 -16934281.62948  20976616.0274   20976620.4274   20976616.1924
        56.0004         51.0004
  -5026886.07447  -3850517.96146  24439298.9114   24439305.4404   24439299.7154
        43.0004         39.0004
  -4608822.30247  -3541053.73946  23941368.5724   23941373.6894   23941368.5934
        46.0004         41.0004
 -15810089.37748 -12146925.26147  22292646.8034   22292651.5444   22292647.4014
        49.0004         45.0004
 -12583110.90647  -9744330.86947  23127857.8694   23127863.3594   23127858.2104
        46.0004         42.0004
 -20840752.83149 -16205282.01648  20450068.3654   20450070.3934   20450068.8704
